{"type":"Topology","objects":{"un_world":{"type":"GeometryCollection","geometries":[{"type":"MultiPolygon","properties":{"FIPS":"AC","ISO2":"AG","ISO3":"ATG","UN":28,"NAME":"Antigua and Barbuda","AREA":44,"POP2005":83039,"REGION":19,"SUBREGION":29,"LON":-61.783,"LAT":17.078},"arcs":[[[0]],[[1]]]},{"type":"Polygon","properties":{"FIPS":"AG","ISO2":"DZ","ISO3":"DZA","UN":12,"NAME":"Algeria","AREA":238174,"POP2005":32854159,"REGION":2,"SUBREGION":15,"LON":2.632,"LAT":28.163},"arcs":[[2,3,4,5,6,7,8,9]]},{"type":"MultiPolygon","properties":{"FIPS":"AJ","ISO2":"AZ","ISO3":"AZE","UN":31,"NAME":"Azerbaijan","AREA":8260,"POP2005":8352021,"REGION":142,"SUBREGION":145,"LON":47.395,"LAT":40.43},"arcs":[[[10,11,12]],[[13]],[[14]],[[15,16,17,18,19],[20]]]},{"type":"Polygon","properties":{"FIPS":"AL","ISO2":"AL","ISO3":"ALB","UN":8,"NAME":"Albania","AREA":2740,"POP2005":3153731,"REGION":150,"SUBREGION":39,"LON":20.068,"LAT":41.143},"arcs":[[21,22,23,24,25]]},{"type":"MultiPolygon","properties":{"FIPS":"AM","ISO2":"AM","ISO3":"ARM","UN":51,"NAME":"Armenia","AREA":2820,"POP2005":3017661,"REGION":142,"SUBREGION":145,"LON":44.563,"LAT":40.534},"arcs":[[[-21]],[[26,-13,27,28,-18],[-15],[-14]]]},{"type":"MultiPolygon","properties":{"FIPS":"AO","ISO2":"AO","ISO3":"AGO","UN":24,"NAME":"Angola","AREA":124670,"POP2005":16095214,"REGION":2,"SUBREGION":17,"LON":17.544,"LAT":-12.296},"arcs":[[[29]],[[30,31,32,33]],[[34,35,36]]]},{"type":"MultiPolygon","properties":{"FIPS":"AQ","ISO2":"AS","ISO3":"ASM","UN":16,"NAME":"American Samoa","AREA":20,"POP2005":64051,"REGION":9,"SUBREGION":61,"LON":-170.73,"LAT":-14.318},"arcs":[[[37]],[[38]]]},{"type":"MultiPolygon","properties":{"FIPS":"AR","ISO2":"AR","ISO3":"ARG","UN":32,"NAME":"Argentina","AREA":273669,"POP2005":38747148,"REGION":19,"SUBREGION":5,"LON":-65.167,"LAT":-35.377},"arcs":[[[39,40]],[[41]],[[42,43]],[[44]],[[45]],[[46,47,48,49,50,51]]]},{"type":"MultiPolygon","properties":{"FIPS":"AS","ISO2":"AU","ISO3":"AUS","UN":36,"NAME":"Australia","AREA":768230,"POP2005":20310208,"REGION":9,"SUBREGION":53,"LON":136.189,"LAT":-24.973},"arcs":[[[52]],[[53]],[[54]],[[55]],[[56]],[[57]],[[58]],[[59]],[[60]],[[61]],[[62]],[[63]],[[64]],[[65]],[[66]],[[67]],[[68]],[[69]],[[70]],[[71]],[[72]],[[73]],[[74]],[[75]],[[76]],[[77]],[[78]],[[79]],[[80]],[[81]],[[82]],[[83]],[[84]],[[85]],[[86]],[[87]],[[88]],[[89]],[[90]],[[91]],[[92]],[[93]],[[94]],[[95]],[[96]],[[97]],[[98]],[[99]],[[100]],[[101]],[[102]],[[103]],[[104]],[[105]],[[106]],[[107]],[[108]],[[109]],[[110]],[[111]],[[112]],[[113]],[[114]],[[115]],[[116]],[[117]],[[118]],[[119]],[[120]],[[121]],[[122]],[[123]],[[124]],[[125]],[[126]],[[127]],[[128]],[[129]],[[130]],[[131]],[[132]],[[133]],[[134]],[[135]],[[136]],[[137]],[[138]],[[139]],[[140]],[[141]]]},{"type":"MultiPolygon","properties":{"FIPS":"BA","ISO2":"BH","ISO3":"BHR","UN":48,"NAME":"Bahrain","AREA":71,"POP2005":724788,"REGION":142,"SUBREGION":145,"LON":50.562,"LAT":26.019},"arcs":[[[142]],[[143]]]},{"type":"Polygon","properties":{"FIPS":"BB","ISO2":"BB","ISO3":"BRB","UN":52,"NAME":"Barbados","AREA":43,"POP2005":291933,"REGION":19,"SUBREGION":29,"LON":-59.559,"LAT":13.153},"arcs":[[144]]},{"type":"MultiPolygon","properties":{"FIPS":"BD","ISO2":"BM","ISO3":"BMU","UN":60,"NAME":"Bermuda","AREA":5,"POP2005":64174,"REGION":19,"SUBREGION":21,"LON":-64.709,"LAT":32.336},"arcs":[[[145]]]},{"type":"MultiPolygon","properties":{"FIPS":"BF","ISO2":"BS","ISO3":"BHS","UN":44,"NAME":"Bahamas","AREA":1001,"POP2005":323295,"REGION":19,"SUBREGION":29,"LON":-78.014,"LAT":24.628},"arcs":[[[146]],[[147]],[[148]],[[149]],[[150]],[[151]],[[152]],[[153]],[[154]],[[155]],[[156]],[[157]],[[158]],[[159]],[[160]],[[161]],[[162]],[[163]],[[164]],[[165]],[[166]],[[167]],[[168]],[[169]],[[170]],[[171]]]},{"type":"MultiPolygon","properties":{"FIPS":"BG","ISO2":"BD","ISO3":"BGD","UN":50,"NAME":"Bangladesh","AREA":13017,"POP2005":15328112,"REGION":142,"SUBREGION":34,"LON":89.941,"LAT":24.218},"arcs":[[[172]],[[173]],[[174]],[[175]],[[176]],[[177]],[[178]],[[179]],[[180]],[[181]],[[182]],[[183]],[[184]],[[185]],[[186]],[[187]],[[188]],[[189]],[[190]],[[191,192,193],[194]]]},{"type":"MultiPolygon","properties":{"FIPS":"BH","ISO2":"BZ","ISO3":"BLZ","UN":84,"NAME":"Belize","AREA":2281,"POP2005":275546,"REGION":19,"SUBREGION":13,"LON":-88.602,"LAT":17.219},"arcs":[[[195]],[[196]],[[197]],[[198]],[[199,200,201]]]},{"type":"Polygon","properties":{"FIPS":"BK","ISO2":"BA","ISO3":"BIH","UN":70,"NAME":"Bosnia and Herzegovina","AREA":5120,"POP2005":3915238,"REGION":150,"SUBREGION":39,"LON":17.786,"LAT":44.169},"arcs":[[202,203,204,205,206]]},{"type":"Polygon","properties":{"FIPS":"BL","ISO2":"BO","ISO3":"BOL","UN":68,"NAME":"Bolivia","AREA":108438,"POP2005":9182015,"REGION":19,"SUBREGION":5,"LON":-64.671,"LAT":-16.715},"arcs":[[207,208,209,210,-52]]},{"type":"MultiPolygon","properties":{"FIPS":"BM","ISO2":"MM","ISO3":"MMR","UN":104,"NAME":"Burma","AREA":65755,"POP2005":47967266,"REGION":142,"SUBREGION":35,"LON":96.041,"LAT":21.718},"arcs":[[[211]],[[212]],[[213]],[[214]],[[215]],[[216]],[[217]],[[218]],[[219]],[[220]],[[221]],[[222]],[[223]],[[224]],[[225]],[[226]],[[227]],[[228]],[[229]],[[230]],[[231]],[[232]],[[233]],[[234]],[[235]],[[236]],[[237]],[[238]],[[239]],[[240]],[[241]],[[242]],[[243]],[[244,245,246,-192,247,248]]]},{"type":"Polygon","properties":{"FIPS":"BN","ISO2":"BJ","ISO3":"BEN","UN":204,"NAME":"Benin","AREA":11062,"POP2005":8490301,"REGION":2,"SUBREGION":11,"LON":2.469,"LAT":10.541},"arcs":[[249,250,251,252,253]]},{"type":"MultiPolygon","properties":{"FIPS":"BP","ISO2":"SB","ISO3":"SLB","UN":90,"NAME":"Solomon Islands","AREA":2799,"POP2005":472419,"REGION":9,"SUBREGION":54,"LON":160.109,"LAT":-9.611},"arcs":[[[254]],[[255]],[[256]],[[257]],[[258]],[[259]],[[260]],[[261]],[[262]],[[263]],[[264]],[[265]],[[266]],[[267]],[[268]],[[269]],[[270]],[[271]],[[272]],[[273]],[[274]],[[275]],[[276]],[[277]],[[278]],[[279]],[[280]],[[281]],[[282]],[[283]],[[284]],[[285]],[[286]],[[287]],[[288]],[[289]],[[290]],[[291]],[[292]],[[293]],[[294]],[[295]]]},{"type":"MultiPolygon","properties":{"FIPS":"BR","ISO2":"BR","ISO3":"BRA","UN":76,"NAME":"Brazil","AREA":845942,"POP2005":186830759,"REGION":19,"SUBREGION":5,"LON":-53.089,"LAT":-10.772},"arcs":[[[296]],[[297]],[[298]],[[299]],[[300]],[[301]],[[302]],[[303]],[[304]],[[305]],[[306]],[[307]],[[308]],[[309]],[[310]],[[311]],[[312]],[[313]],[[314]],[[315]],[[316]],[[317]],[[318]],[[319]],[[320]],[[321]],[[322]],[[323]],[[324]],[[325]],[[326]],[[327]],[[328]],[[329]],[[330]],[[331]],[[332]],[[333]],[[334]],[[335]],[[336]],[[337]],[[338]],[[339]],[[340]],[[341]],[[342]],[[343]],[[344]],[[345]],[[346]],[[347]],[[348]],[[349]],[[350]],[[351]],[[352]],[[353,354,355,356,-48,357,-210,358,359,360,361]]]},{"type":"Polygon","properties":{"FIPS":"BU","ISO2":"BG","ISO3":"BGR","UN":100,"NAME":"Bulgaria","AREA":11063,"POP2005":7744591,"REGION":150,"SUBREGION":151,"LON":25.231,"LAT":42.761},"arcs":[[362,363,364,365,366,367]]},{"type":"MultiPolygon","properties":{"FIPS":"BX","ISO2":"BN","ISO3":"BRN","UN":96,"NAME":"Brunei Darussalam","AREA":527,"POP2005":373831,"REGION":142,"SUBREGION":35,"LON":114.591,"LAT":4.468},"arcs":[[[368,369]],[[370,371]]]},{"type":"MultiPolygon","properties":{"FIPS":"CA","ISO2":"CA","ISO3":"CAN","UN":124,"NAME":"Canada","AREA":909351,"POP2005":32270507,"REGION":19,"SUBREGION":21,"LON":-109.433,"LAT":59.081},"arcs":[[[372]],[[373]],[[374]],[[375]],[[376]],[[377]],[[378]],[[379]],[[380]],[[381]],[[382]],[[383]],[[384]],[[385]],[[386]],[[387]],[[388]],[[389]],[[390]],[[391]],[[392]],[[393]],[[394]],[[395]],[[396]],[[397]],[[398]],[[399]],[[400]],[[401]],[[402]],[[403]],[[404]],[[405]],[[406]],[[407]],[[408]],[[409]],[[410]],[[411]],[[412]],[[413]],[[414]],[[415]],[[416]],[[417]],[[418]],[[419]],[[420]],[[421]],[[422]],[[423]],[[424]],[[425]],[[426]],[[427]],[[428]],[[429]],[[430]],[[431]],[[432]],[[433]],[[434]],[[435]],[[436]],[[437]],[[438]],[[439]],[[440]],[[441]],[[442]],[[443]],[[444]],[[445]],[[446]],[[447]],[[448]],[[449]],[[450]],[[451]],[[452]],[[453]],[[454]],[[455]],[[456]],[[457]],[[458]],[[459]],[[460]],[[461]],[[462]],[[463]],[[464]],[[465]],[[466]],[[467]],[[468]],[[469]],[[470]],[[471]],[[472]],[[473]],[[474]],[[475]],[[476]],[[477]],[[478]],[[479]],[[480]],[[481]],[[482]],[[483]],[[484]],[[485]],[[486]],[[487]],[[488]],[[489]],[[490]],[[491]],[[492]],[[493]],[[494]],[[495]],[[496]],[[497]],[[498]],[[499]],[[500]],[[501]],[[502]],[[503]],[[504]],[[505]],[[506]],[[507]],[[508]],[[509]],[[510]],[[511]],[[512]],[[513]],[[514]],[[515]],[[516]],[[517]],[[518]],[[519]],[[520]],[[521]],[[522]],[[523]],[[524]],[[525]],[[526]],[[527]],[[528]],[[529]],[[530]],[[531]],[[532]],[[533]],[[534]],[[535]],[[536]],[[537]],[[538]],[[539]],[[540]],[[541]],[[542]],[[543]],[[544]],[[545]],[[546]],[[547]],[[548]],[[549]],[[550]],[[551]],[[552]],[[553]],[[554]],[[555]],[[556]],[[557]],[[558]],[[559]],[[560]],[[561]],[[562]],[[563]],[[564]],[[565]],[[566]],[[567]],[[568]],[[569]],[[570]],[[571]],[[572]],[[573]],[[574]],[[575]],[[576]],[[577]],[[578]],[[579]],[[580]],[[581]],[[582]],[[583]],[[584]],[[585]],[[586]],[[587]],[[588]],[[589]],[[590]],[[591]],[[592]],[[593]],[[594]],[[595]],[[596]],[[597]],[[598]],[[599]],[[600]],[[601]],[[602]],[[603]],[[604]],[[605]],[[606]],[[607]],[[608]],[[609]],[[610]],[[611]],[[612]],[[613]],[[614]],[[615]],[[616]],[[617]],[[618]],[[619]],[[620]],[[621]],[[622]],[[623]],[[624]],[[625]],[[626]],[[627]],[[628]],[[629]],[[630]],[[631]],[[632]],[[633]],[[634]],[[635]],[[636]],[[637]],[[638]],[[639]],[[640]],[[641]],[[642]],[[643]],[[644]],[[645]],[[646]],[[647]],[[648]],[[649]],[[650]],[[651]],[[652]],[[653]],[[654]],[[655]],[[656]],[[657]],[[658]],[[659]],[[660]],[[661]],[[662]],[[663]],[[664]],[[665]],[[666]],[[667]],[[668]],[[669]],[[670]],[[671]],[[672]],[[673]],[[674]],[[675]],[[676]],[[677]],[[678]],[[679]],[[680]],[[681]],[[682]],[[683]],[[684]],[[685,686]],[[687]],[[688]],[[689]],[[690]],[[691]],[[692]],[[693]],[[694]],[[695]],[[696]],[[697]],[[698]],[[699]],[[700]],[[701]],[[702]],[[703]],[[704]],[[705]],[[706]],[[707]],[[708]],[[709]],[[710]],[[711]],[[712]],[[713]],[[714]],[[715]],[[716]],[[717]],[[718]],[[719]],[[720]],[[721,722,723,724,725,726,727,728],[729],[730]],[[731]],[[732]],[[733]],[[734]],[[735]],[[736]],[[737]],[[738]],[[739]],[[740]],[[741]],[[742]],[[743]],[[744]],[[745]],[[746]],[[747]],[[748]],[[749]],[[750]],[[751]],[[752]],[[753]],[[754]],[[755]],[[756]],[[757]],[[758]],[[759]],[[760]],[[761]],[[762]],[[763]],[[764]],[[765]],[[766]],[[767]],[[768]],[[769]],[[770]],[[771]],[[772]],[[773]],[[774]],[[775]],[[776]],[[777]],[[778]],[[779]],[[780]],[[781]],[[782]],[[783]],[[784]],[[785]],[[786]],[[787]],[[788]],[[789]],[[790]],[[791]],[[792]],[[793]],[[794]],[[795]],[[796]],[[797]],[[798]],[[799]],[[800]],[[801]],[[802]],[[803]],[[804]],[[805]],[[806]],[[807]],[[808]],[[809]],[[810]],[[811]],[[812]],[[813]],[[814]],[[815]],[[816]],[[817]],[[818]],[[819]],[[820]],[[821]]]},{"type":"MultiPolygon","properties":{"FIPS":"CB","ISO2":"KH","ISO3":"KHM","UN":116,"NAME":"Cambodia","AREA":17652,"POP2005":13955507,"REGION":142,"SUBREGION":35,"LON":104.564,"LAT":12.714},"arcs":[[[822]],[[823]],[[824]],[[825]],[[826,827,828,829]]]},{"type":"MultiPolygon","properties":{"FIPS":"CE","ISO2":"LK","ISO3":"LKA","UN":144,"NAME":"Sri Lanka","AREA":6463,"POP2005":19120763,"REGION":142,"SUBREGION":34,"LON":80.704,"LAT":7.612},"arcs":[[[830]],[[831]],[[832]],[[833]],[[834]]]},{"type":"Polygon","properties":{"FIPS":"CF","ISO2":"CG","ISO3":"COG","UN":178,"NAME":"Congo","AREA":34150,"POP2005":3609851,"REGION":2,"SUBREGION":17,"LON":15.986,"LAT":-0.055},"arcs":[[835,836,837,838,839,-36]]},{"type":"MultiPolygon","properties":{"FIPS":"CG","ISO2":"CD","ISO3":"COD","UN":180,"NAME":"Democratic Republic of the Congo","AREA":226705,"POP2005":58740547,"REGION":2,"SUBREGION":17,"LON":23.654,"LAT":-2.876},"arcs":[[[840]],[[841,842,843,844,845,846,-34,847,-37,-840,848]]]},{"type":"Polygon","properties":{"FIPS":"BY","ISO2":"BI","ISO3":"BDI","UN":108,"NAME":"Burundi","AREA":2568,"POP2005":7858791,"REGION":2,"SUBREGION":14,"LON":29.887,"LAT":-3.356},"arcs":[[849,850,-845]]},{"type":"MultiPolygon","properties":{"FIPS":"CH","ISO2":"CN","ISO3":"CHN","UN":156,"NAME":"China","AREA":932743,"POP2005":1312978855,"REGION":142,"SUBREGION":30,"LON":106.514,"LAT":33.42},"arcs":[[[851]],[[852]],[[853]],[[854]],[[855]],[[856]],[[857]],[[858]],[[859]],[[860]],[[861]],[[862]],[[863]],[[864]],[[865]],[[866]],[[867]],[[868]],[[869]],[[870]],[[871]],[[872]],[[873]],[[874]],[[875]],[[876]],[[877]],[[878]],[[879]],[[880]],[[881,882,883,884,885,886,887,888,-249,889,890,891,892,893,894,895,896,897,898,899,900,901]]]},{"type":"Polygon","properties":{"FIPS":"AF","ISO2":"AF","ISO3":"AFG","UN":4,"NAME":"Afghanistan","AREA":65209,"POP2005":25067407,"REGION":142,"SUBREGION":34,"LON":65.216,"LAT":33.677},"arcs":[[-896,902,903,904,905,906]]},{"type":"Polygon","properties":{"FIPS":"BT","ISO2":"BT","ISO3":"BTN","UN":64,"NAME":"Bhutan","AREA":4700,"POP2005":637013,"REGION":142,"SUBREGION":34,"LON":90.429,"LAT":27.415},"arcs":[[907,-891]]},{"type":"MultiPolygon","properties":{"FIPS":"CI","ISO2":"CL","ISO3":"CHL","UN":152,"NAME":"Chile","AREA":74880,"POP2005":16295102,"REGION":19,"SUBREGION":5,"LON":-69.433,"LAT":-23.389},"arcs":[[[908]],[[909]],[[910]],[[911]],[[912]],[[913]],[[914]],[[915]],[[916]],[[917]],[[918]],[[919]],[[920]],[[921]],[[922]],[[923]],[[924]],[[925]],[[926]],[[927]],[[928]],[[929]],[[930]],[[931]],[[932]],[[933]],[[934]],[[935]],[[936]],[[937]],[[938]],[[939]],[[-43,940,-40,941]],[[942]],[[943]],[[944]],[[945]],[[946]],[[947]],[[948]],[[949]],[[950]],[[951]],[[952]],[[953]],[[954]],[[955]],[[956]],[[957]],[[958]],[[959]],[[960]],[[961]],[[962]],[[963]],[[964]],[[965]],[[966]],[[967]],[[968]],[[969]],[[970]],[[971]],[[972]],[[973]],[[974]],[[975]],[[976]],[[977]],[[978]],[[979]],[[980]],[[981]],[[982]],[[983]],[[984]],[[985]],[[986]],[[987]],[[988]],[[989]],[[990]],[[991]],[[992]],[[993]],[[994]],[[995]],[[996]],[[997]],[[998]],[[999]],[[1000]],[[1001]],[[1002]],[[1003]],[[1004]],[[1005]],[[1006]],[[1007]],[[1008]],[[1009]],[[1010]],[[1011]],[[1012]],[[1013]],[[1014]],[[1015]],[[1016]],[[1017]],[[1018]],[[1019]],[[1020]],[[1021]],[[1022]],[[1023]],[[1024]],[[1025]],[[1026]],[[1027]],[[1028]],[[1029]],[[1030]],[[1031]],[[1032]],[[1033]],[[1034]],[[1035]],[[1036]],[[1037]],[[1038]],[[1039]],[[1040]],[[1041]],[[1042]],[[1043]],[[1044]],[[1045]],[[1046]],[[1047]],[[1048]],[[1049]],[[-51,1050,1051,-208],[1052]]]},{"type":"MultiPolygon","properties":{"FIPS":"CJ","ISO2":"KY","ISO3":"CYM","UN":136,"NAME":"Cayman Islands","AREA":26,"POP2005":45591,"REGION":19,"SUBREGION":29,"LON":-81.198,"LAT":19.314},"arcs":[[[1053]],[[1054]],[[1055]]]},{"type":"MultiPolygon","properties":{"FIPS":"CM","ISO2":"CM","ISO3":"CMR","UN":120,"NAME":"Cameroon","AREA":46540,"POP2005":17795149,"REGION":2,"SUBREGION":17,"LON":12.277,"LAT":5.133},"arcs":[[[1056]],[[1057,-838,1058,1059,1060,1061,1062]]]},{"type":"Polygon","properties":{"FIPS":"CD","ISO2":"TD","ISO3":"TCD","UN":148,"NAME":"Chad","AREA":125920,"POP2005":10145609,"REGION":2,"SUBREGION":17,"LON":18.665,"LAT":15.361},"arcs":[[1063,1064,1065,1066,1067,-1063]]},{"type":"MultiPolygon","properties":{"FIPS":"CN","ISO2":"KM","ISO3":"COM","UN":174,"NAME":"Comoros","AREA":223,"POP2005":797902,"REGION":2,"SUBREGION":14,"LON":43.337,"LAT":-11.758},"arcs":[[[1068]],[[1069]],[[1070]]]},{"type":"MultiPolygon","properties":{"FIPS":"CO","ISO2":"CO","ISO3":"COL","UN":170,"NAME":"Colombia","AREA":103870,"POP2005":4494579,"REGION":19,"SUBREGION":5,"LON":-73.076,"LAT":3.9},"arcs":[[[1071]],[[1072]],[[1073]],[[1074]],[[1075]],[[1076]],[[1077]],[[1078,-360,1079,1080,1081,1082,1083]],[[1084]],[[1085]]]},{"type":"MultiPolygon","properties":{"FIPS":"CS","ISO2":"CR","ISO3":"CRI","UN":188,"NAME":"Costa Rica","AREA":5106,"POP2005":4327228,"REGION":19,"SUBREGION":13,"LON":-83.946,"LAT":9.971},"arcs":[[[1086]],[[1087,1088,1089,1090]]]},{"type":"Polygon","properties":{"FIPS":"CT","ISO2":"CF","ISO3":"CAF","UN":140,"NAME":"Central African Republic","AREA":62298,"POP2005":4191429,"REGION":2,"SUBREGION":17,"LON":20.483,"LAT":6.571},"arcs":[[1091,-849,-839,-1058,-1068]]},{"type":"MultiPolygon","properties":{"FIPS":"CU","ISO2":"CU","ISO3":"CUB","UN":192,"NAME":"Cuba","AREA":10982,"POP2005":11259905,"REGION":19,"SUBREGION":29,"LON":-77.781,"LAT":21.297},"arcs":[[[1092]],[[1093]],[[1094]],[[1095]],[[1096]],[[1097]],[[1098]],[[1099]],[[1100]],[[1101]],[[1102]],[[1103]],[[1104]],[[1105]],[[1106]],[[1107]],[[1108]],[[1109]],[[1110]],[[1111]],[[1112]],[[1113]],[[1114,1115,1116,1117]],[[1118]]]},{"type":"MultiPolygon","properties":{"FIPS":"CV","ISO2":"CV","ISO3":"CPV","UN":132,"NAME":"Cape Verde","AREA":403,"POP2005":506807,"REGION":2,"SUBREGION":11,"LON":-23.634,"LAT":15.071},"arcs":[[[1119]],[[1120]],[[1121]],[[1122]],[[1123]],[[1124]]]},{"type":"MultiPolygon","properties":{"FIPS":"CW","ISO2":"CK","ISO3":"COK","UN":184,"NAME":"Cook Islands","AREA":24,"POP2005":13984,"REGION":9,"SUBREGION":61,"LON":-159.782,"LAT":-21.219},"arcs":[[[1125]],[[1126]],[[1127]],[[1128]],[[1129]],[[1130]],[[1131]],[[1132]]]},{"type":"Polygon","properties":{"FIPS":"CY","ISO2":"CY","ISO3":"CYP","UN":196,"NAME":"Cyprus","AREA":924,"POP2005":836321,"REGION":142,"SUBREGION":145,"LON":33.219,"LAT":35.043},"arcs":[[1133]]},{"type":"MultiPolygon","properties":{"FIPS":"DA","ISO2":"DK","ISO3":"DNK","UN":208,"NAME":"Denmark","AREA":4243,"POP2005":5416945,"REGION":150,"SUBREGION":154,"LON":9.264,"LAT":56.058},"arcs":[[[1134]],[[1135]],[[1136]],[[1137]],[[1138]],[[1139]],[[1140]],[[1141]],[[1142]],[[1143]],[[1144]],[[1145]],[[1146]],[[1147]],[[1148]],[[1149,1150]],[[1151]],[[1152]]]},{"type":"Polygon","properties":{"FIPS":"DJ","ISO2":"DJ","ISO3":"DJI","UN":262,"NAME":"Djibouti","AREA":2318,"POP2005":804206,"REGION":2,"SUBREGION":14,"LON":42.516,"LAT":11.9},"arcs":[[1153,1154,1155,1156]]},{"type":"Polygon","properties":{"FIPS":"DO","ISO2":"DM","ISO3":"DMA","UN":212,"NAME":"Dominica","AREA":75,"POP2005":67827,"REGION":19,"SUBREGION":29,"LON":-61.356,"LAT":15.475},"arcs":[[1157]]},{"type":"MultiPolygon","properties":{"FIPS":"DR","ISO2":"DO","ISO3":"DOM","UN":214,"NAME":"Dominican Republic","AREA":4838,"POP2005":9469601,"REGION":19,"SUBREGION":29,"LON":-70.729,"LAT":19.015},"arcs":[[[1158]],[[1159]],[[1160,1161]]]},{"type":"MultiPolygon","properties":{"FIPS":"EC","ISO2":"EC","ISO3":"ECU","UN":218,"NAME":"Ecuador","AREA":27684,"POP2005":13060993,"REGION":19,"SUBREGION":5,"LON":-78.497,"LAT":-1.385},"arcs":[[[1162]],[[1163]],[[1164]],[[1165]],[[1166]],[[1167]],[[1168]],[[1169]],[[1170]],[[1171]],[[1172]],[[1173]],[[1174]],[[1175,1176,-1081]]]},{"type":"MultiPolygon","properties":{"FIPS":"EG","ISO2":"EG","ISO3":"EGY","UN":818,"NAME":"Egypt","AREA":99545,"POP2005":72849793,"REGION":2,"SUBREGION":15,"LON":29.872,"LAT":26.494},"arcs":[[[1177]],[[1178]],[[1179]],[[1180]],[[1181,1182,1183,1184,1185,1186]]]},{"type":"MultiPolygon","properties":{"FIPS":"EI","ISO2":"IE","ISO3":"IRL","UN":372,"NAME":"Ireland","AREA":6889,"POP2005":4143294,"REGION":150,"SUBREGION":154,"LON":-8.152,"LAT":53.177},"arcs":[[[1187]],[[1188]],[[1189,1190]]]},{"type":"MultiPolygon","properties":{"FIPS":"EK","ISO2":"GQ","ISO3":"GNQ","UN":226,"NAME":"Equatorial Guinea","AREA":2805,"POP2005":484098,"REGION":2,"SUBREGION":17,"LON":10.488,"LAT":1.607},"arcs":[[[1191]],[[1192,1193,-1060]],[[1194]]]},{"type":"MultiPolygon","properties":{"FIPS":"EN","ISO2":"EE","ISO3":"EST","UN":233,"NAME":"Estonia","AREA":4239,"POP2005":1344312,"REGION":150,"SUBREGION":154,"LON":25.793,"LAT":58.674},"arcs":[[[1195]],[[1196]],[[1197]],[[1198]],[[1199]],[[1200,1201,1202]]]},{"type":"MultiPolygon","properties":{"FIPS":"ER","ISO2":"ER","ISO3":"ERI","UN":232,"NAME":"Eritrea","AREA":10100,"POP2005":4526722,"REGION":2,"SUBREGION":14,"LON":38.219,"LAT":16.045},"arcs":[[[1203]],[[1204]],[[-1156,1205,1206,1207]]]},{"type":"MultiPolygon","properties":{"FIPS":"ES","ISO2":"SV","ISO3":"SLV","UN":222,"NAME":"El Salvador","AREA":2072,"POP2005":6668356,"REGION":19,"SUBREGION":13,"LON":-88.866,"LAT":13.736},"arcs":[[[1208]],[[1209,1210,1211]]]},{"type":"Polygon","properties":{"FIPS":"ET","ISO2":"ET","ISO3":"ETH","UN":231,"NAME":"Ethiopia","AREA":100000,"POP2005":78985857,"REGION":2,"SUBREGION":14,"LON":39.616,"LAT":8.626},"arcs":[[-1206,-1155,1212,1213,1214]]},{"type":"Polygon","properties":{"FIPS":"AU","ISO2":"AT","ISO3":"AUT","UN":40,"NAME":"Austria","AREA":8245,"POP2005":8291979,"REGION":150,"SUBREGION":155,"LON":14.912,"LAT":47.683},"arcs":[[1215,1216,1217,1218,1219,1220,1221,1222,1223]]},{"type":"Polygon","properties":{"FIPS":"EZ","ISO2":"CZ","ISO3":"CZE","UN":203,"NAME":"Czech Republic","AREA":7727,"POP2005":10191762,"REGION":150,"SUBREGION":151,"LON":15.338,"LAT":49.743},"arcs":[[1224,1225,1226,-1216]]},{"type":"Polygon","properties":{"FIPS":"FG","ISO2":"GF","ISO3":"GUF","UN":254,"NAME":"French Guiana","AREA":8815,"POP2005":192099,"REGION":19,"SUBREGION":5,"LON":-53.241,"LAT":3.924},"arcs":[[-355,1227,1228]]},{"type":"MultiPolygon","properties":{"FIPS":"FI","ISO2":"FI","ISO3":"FIN","UN":246,"NAME":"Finland","AREA":30459,"POP2005":5246004,"REGION":150,"SUBREGION":154,"LON":26.272,"LAT":64.504},"arcs":[[[1229]],[[1230]],[[1231]],[[1232]],[[1233]],[[1234]],[[1235]],[[1236]],[[1237]],[[1238]],[[1239]],[[1240]],[[1241]],[[1242]],[[1243]],[[1244]],[[1245]],[[1246]],[[1247]],[[1248]],[[1249]],[[1250]],[[1251]],[[1252,1253,1254,1255]]]},{"type":"MultiPolygon","properties":{"FIPS":"FJ","ISO2":"FJ","ISO3":"FJI","UN":242,"NAME":"Fiji","AREA":1827,"POP2005":828046,"REGION":9,"SUBREGION":54,"LON":177.974,"LAT":-17.819},"arcs":[[[1256]],[[1257]],[[1258]],[[1259]],[[1260]],[[1261]],[[1262]],[[1263]],[[1264]],[[1265]],[[1266]],[[1267]],[[1268]],[[1269]],[[1270]],[[1271]],[[1272]],[[1273]],[[1274]],[[1275]],[[1276]],[[1277]],[[1278]],[[1279]],[[1280]],[[1281]],[[1282]]]},{"type":"MultiPolygon","properties":{"FIPS":"FK","ISO2":"FK","ISO3":"FLK","UN":238,"NAME":"Falkland Islands (Malvinas)","AREA":1217,"POP2005":2975,"REGION":19,"SUBREGION":5,"LON":-58.694,"LAT":-51.665},"arcs":[[[1283]],[[1284]],[[1285]],[[1286]],[[1287]],[[1288]],[[1289]],[[1290]],[[1291]],[[1292]]]},{"type":"MultiPolygon","properties":{"FIPS":"FM","ISO2":"FM","ISO3":"FSM","UN":583,"NAME":"Micronesia, Federated States of","AREA":70,"POP2005":110058,"REGION":9,"SUBREGION":57,"LON":158.235,"LAT":6.883},"arcs":[[[1293]],[[1294]],[[1295]],[[1296]],[[1297]],[[1298]],[[1299]]]},{"type":"MultiPolygon","properties":{"FIPS":"FP","ISO2":"PF","ISO3":"PYF","UN":258,"NAME":"French Polynesia","AREA":366,"POP2005":255632,"REGION":9,"SUBREGION":61,"LON":-149.462,"LAT":-17.626},"arcs":[[[1300]],[[1301]],[[1302]],[[1303]],[[1304]],[[1305]],[[1306]],[[1307]],[[1308]],[[1309]],[[1310]],[[1311]],[[1312]],[[1313]],[[1314]],[[1315]],[[1316]],[[1317]],[[1318]],[[1319]],[[1320]],[[1321]],[[1322]]]},{"type":"MultiPolygon","properties":{"FIPS":"FR","ISO2":"FR","ISO3":"FRA","UN":250,"NAME":"France","AREA":55010,"POP2005":60990544,"REGION":150,"SUBREGION":155,"LON":2.55,"LAT":46.565},"arcs":[[[1323]],[[1324]],[[1325]],[[1326]],[[1327]],[[1328]],[[1329,1330,1331,1332,1333,1334,1335,1336,1337,1338,1339,1340]]]},{"type":"Polygon","properties":{"FIPS":"GA","ISO2":"GM","ISO3":"GMB","UN":270,"NAME":"Gambia","AREA":1000,"POP2005":1617029,"REGION":2,"SUBREGION":11,"LON":-15.386,"LAT":13.453},"arcs":[[1341,1342]]},{"type":"MultiPolygon","properties":{"FIPS":"GB","ISO2":"GA","ISO3":"GAB","UN":266,"NAME":"Gabon","AREA":25767,"POP2005":1290693,"REGION":2,"SUBREGION":17,"LON":11.797,"LAT":-0.591},"arcs":[[[1343]],[[-837,1344,-1193,-1059]]]},{"type":"Polygon","properties":{"FIPS":"GG","ISO2":"GE","ISO3":"GEO","UN":268,"NAME":"Georgia","AREA":6949,"POP2005":4473409,"REGION":142,"SUBREGION":145,"LON":43.518,"LAT":42.176},"arcs":[[1345,-19,-29,1346,1347]]},{"type":"Polygon","properties":{"FIPS":"GH","ISO2":"GH","ISO3":"GHA","UN":288,"NAME":"Ghana","AREA":22754,"POP2005":2253501,"REGION":2,"SUBREGION":11,"LON":-1.207,"LAT":7.96},"arcs":[[1348,1349,1350,1351,1352,1353]]},{"type":"MultiPolygon","properties":{"FIPS":"GJ","ISO2":"GD","ISO3":"GRD","UN":308,"NAME":"Grenada","AREA":34,"POP2005":105237,"REGION":19,"SUBREGION":29,"LON":-61.678,"LAT":12.118},"arcs":[[[1354]],[[1355]]]},{"type":"MultiPolygon","properties":{"FIPS":"GL","ISO2":"GL","ISO3":"GRL","UN":304,"NAME":"Greenland","AREA":41045,"POP2005":57475,"REGION":19,"SUBREGION":21,"LON":-41.391,"LAT":74.719},"arcs":[[[1356]],[[1357]],[[1358]],[[1359]],[[1360]],[[1361]],[[1362]],[[1363]],[[1364]],[[1365]],[[1366]],[[1367]],[[1368]],[[1369]],[[1370]],[[1371]],[[1372]],[[1373]],[[1374]],[[1375]],[[1376]],[[1377]],[[1378]],[[1379]],[[1380]],[[1381]],[[1382]],[[1383]],[[1384]],[[1385]],[[1386]],[[1387]],[[1388]],[[1389]],[[1390]],[[1391]],[[1392]],[[1393]],[[1394]],[[1395]],[[1396]],[[1397]],[[1398]],[[1399]],[[1400]],[[1401]],[[1402]],[[1403]],[[1404]],[[1405]],[[1406]],[[1407]],[[1408]],[[1409]],[[1410]],[[1411]],[[1412]],[[1413]],[[1414]],[[1415]],[[1416]],[[1417]],[[1418]],[[1419]],[[1420]],[[1421]],[[1422]],[[1423]],[[1424]],[[1425]],[[1426]],[[1427]],[[1428]],[[1429]],[[1430]],[[1431]],[[1432]],[[1433]],[[1434]],[[1435]],[[1436]],[[1437]],[[1438]],[[1439]],[[1440]],[[1441]],[[1442]],[[1443]],[[1444]],[[1445]],[[1446]],[[1447]],[[1448]],[[1449]],[[1450]],[[1451]],[[1452]],[[1453]],[[1454]],[[1455]],[[1456]],[[1457]],[[1458]],[[1459]],[[1460]],[[1461]],[[1462]],[[1463]],[[1464]],[[1465]],[[1466]],[[1467]],[[1468]],[[1469]],[[1470]],[[1471]],[[1472]],[[1473]],[[1474]],[[1475]],[[1476]],[[1477]],[[1478]],[[1479]],[[1480]],[[1481]],[[1482]],[[1483]],[[1484]],[[1485]],[[1486]],[[1487]],[[1488]],[[1489]],[[1490]],[[1491]],[[1492]],[[1493]],[[1494]],[[1495]],[[1496]],[[1497]],[[1498]],[[1499]],[[1500]],[[1501]],[[1502]],[[1503]],[[1504]],[[1505]],[[1506]],[[1507]],[[1508]],[[1509]],[[1510]],[[1511]],[[1512]],[[1513]],[[1514]],[[1515]],[[1516]],[[1517]],[[1518]],[[1519]],[[1520]],[[1521]],[[1522]],[[1523]],[[1524]],[[1525]],[[1526]],[[1527]],[[1528]],[[1529]],[[1530]],[[1531]],[[1532]],[[1533]],[[1534]],[[1535]],[[1536]],[[1537]],[[1538]]]},{"type":"MultiPolygon","properties":{"FIPS":"GM","ISO2":"DE","ISO3":"DEU","UN":276,"NAME":"Germany","AREA":34895,"POP2005":82652369,"REGION":150,"SUBREGION":155,"LON":9.851,"LAT":51.11},"arcs":[[[1539]],[[1540]],[[1541]],[[1542]],[[1543]],[[1544]],[[1545]],[[1546,1547]],[[1548]],[[1549]],[[1550]],[[1551]],[[1552]],[[1553]],[[1554]],[[1555,1556,-1225,-1224,1557,-1332,1558,1559,1560,1561,-1150,1562]]]},{"type":"Polygon","properties":{"FIPS":"GQ","ISO2":"GU","ISO3":"GUM","UN":316,"NAME":"Guam","AREA":55,"POP2005":16857,"REGION":9,"SUBREGION":57,"LON":144.707,"LAT":13.385},"arcs":[[1563]]},{"type":"MultiPolygon","properties":{"FIPS":"GR","ISO2":"GR","ISO3":"GRC","UN":300,"NAME":"Greece","AREA":12890,"POP2005":11099737,"REGION":150,"SUBREGION":39,"LON":21.766,"LAT":39.666},"arcs":[[[1564]],[[1565]],[[1566]],[[1567]],[[1568]],[[1569]],[[1570]],[[1571]],[[1572]],[[1573]],[[1574]],[[1575]],[[1576]],[[1577]],[[1578]],[[1579]],[[1580]],[[1581]],[[1582]],[[1583]],[[1584]],[[1585]],[[1586]],[[1587]],[[1588]],[[1589]],[[1590]],[[1591]],[[1592]],[[1593]],[[1594]],[[1595]],[[1596]],[[1597]],[[1598]],[[1599]],[[1600]],[[1601]],[[1602]],[[1603]],[[1604]],[[1605]],[[1606]],[[1607]],[[1608]],[[1609]],[[1610]],[[1611]],[[1612]],[[1613]],[[1614]],[[1615]],[[1616]],[[1617]],[[1618]],[[1619]],[[1620]],[[1621]],[[1622]],[[1623]],[[1624,1625,-25,1626,-364]]]},{"type":"Polygon","properties":{"FIPS":"GT","ISO2":"GT","ISO3":"GTM","UN":320,"NAME":"Guatemala","AREA":10843,"POP2005":12709564,"REGION":19,"SUBREGION":13,"LON":-90.398,"LAT":15.256},"arcs":[[1627,-201,1628,1629,-1211,1630]]},{"type":"Polygon","properties":{"FIPS":"GV","ISO2":"GN","ISO3":"GIN","UN":324,"NAME":"Guinea","AREA":24572,"POP2005":9002656,"REGION":2,"SUBREGION":11,"LON":-10.942,"LAT":10.439},"arcs":[[1631,1632,1633,1634,1635,1636,1637]]},{"type":"MultiPolygon","properties":{"FIPS":"GY","ISO2":"GY","ISO3":"GUY","UN":328,"NAME":"Guyana","AREA":19685,"POP2005":739472,"REGION":19,"SUBREGION":5,"LON":-58.974,"LAT":4.792},"arcs":[[[1638]],[[1639,-362,1640,1641]]]},{"type":"MultiPolygon","properties":{"FIPS":"HA","ISO2":"HT","ISO3":"HTI","UN":332,"NAME":"Haiti","AREA":2756,"POP2005":9296291,"REGION":19,"SUBREGION":29,"LON":-72.278,"LAT":19.142},"arcs":[[[1642]],[[1643]],[[1644]],[[-1161,1645]],[[1646]]]},{"type":"MultiPolygon","properties":{"FIPS":"HO","ISO2":"HN","ISO3":"HND","UN":340,"NAME":"Honduras","AREA":11189,"POP2005":683411,"REGION":19,"SUBREGION":13,"LON":-86.863,"LAT":14.819},"arcs":[[[1647]],[[1648]],[[1649,1650,-1212,-1630,1651]],[[1652]],[[1653]],[[1654]]]},{"type":"MultiPolygon","properties":{"FIPS":"HR","ISO2":"HR","ISO3":"HRV","UN":191,"NAME":"Croatia","AREA":5592,"POP2005":455149,"REGION":150,"SUBREGION":39,"LON":16.693,"LAT":45.723},"arcs":[[[1655]],[[1656]],[[1657]],[[-207,1658,1659]],[[1660]],[[1661]],[[1662]],[[1663]],[[1664]],[[1665]],[[1666]],[[1667]],[[1668]],[[1669]],[[1670]],[[1671]],[[1672]],[[1673]],[[1674,1675,-204,1676,1677]]]},{"type":"Polygon","properties":{"FIPS":"HU","ISO2":"HU","ISO3":"HUN","UN":348,"NAME":"Hungary","AREA":9210,"POP2005":10086387,"REGION":150,"SUBREGION":151,"LON":19.134,"LAT":47.07},"arcs":[[-1675,1678,-1218,1679,1680,1681,1682]]},{"type":"Polygon","properties":{"FIPS":"IC","ISO2":"IS","ISO3":"ISL","UN":352,"NAME":"Iceland","AREA":10025,"POP2005":295732,"REGION":150,"SUBREGION":154,"LON":-18.48,"LAT":64.764},"arcs":[[1683]]},{"type":"MultiPolygon","properties":{"FIPS":"IN","ISO2":"IN","ISO3":"IND","UN":356,"NAME":"India","AREA":297319,"POP2005":1134403141,"REGION":142,"SUBREGION":34,"LON":79.619,"LAT":22.881},"arcs":[[[1684]],[[1685]],[[1686]],[[1687]],[[1688]],[[1689]],[[1690]],[[1691]],[[1692]],[[1693]],[[1694]],[[1695]],[[1696]],[[1697]],[[1698]],[[1699]],[[1700]],[[1701]],[[1702]],[[1703]],[[1704]],[[1705]],[[1706]],[[1707]],[[1708]],[[1709,-892,-908,-890,-248,-194,1710,1711,-894]]]},{"type":"MultiPolygon","properties":{"FIPS":"IR","ISO2":"IR","ISO3":"IRN","UN":364,"NAME":"Iran (Islamic Republic of)","AREA":163620,"POP2005":69420607,"REGION":142,"SUBREGION":34,"LON":54.301,"LAT":32.565},"arcs":[[[1712]],[[1713]],[[1714]],[[1715]],[[1716]],[[1717]],[[1718]],[[-27,-17,1719,1720,-904,1721,1722,1723,1724,-11]]]},{"type":"MultiPolygon","properties":{"FIPS":"IS","ISO2":"IL","ISO3":"ISR","UN":376,"NAME":"Israel","AREA":2171,"POP2005":6692037,"REGION":142,"SUBREGION":145,"LON":34.851,"LAT":31.026},"arcs":[[[1725]],[[1726,1727,1728,1729,1730,-1183,1731,1732,1733]]]},{"type":"MultiPolygon","properties":{"FIPS":"IT","ISO2":"IT","ISO3":"ITA","UN":380,"NAME":"Italy","AREA":29411,"POP2005":5864636,"REGION":150,"SUBREGION":39,"LON":10.44,"LAT":44.931},"arcs":[[[1734,1735,-1334,1736,-1220],[1737],[1738]],[[1739]],[[1740]],[[1741]],[[1742]],[[1743]],[[1744]],[[1745]],[[1746]],[[1747]],[[1748]],[[1749]],[[1750]],[[1751]],[[1752]],[[1753]]]},{"type":"MultiPolygon","properties":{"FIPS":"IV","ISO2":"CI","ISO3":"CIV","UN":384,"NAME":"Cote d'Ivoire","AREA":31800,"POP2005":18584701,"REGION":2,"SUBREGION":11,"LON":-5.556,"LAT":7.632},"arcs":[[[-1349,1754]],[[1755]],[[1756,1757,-1635,1758,1759,-1351,1760]]]},{"type":"Polygon","properties":{"FIPS":"IZ","ISO2":"IQ","ISO3":"IRQ","UN":368,"NAME":"Iraq","AREA":43737,"POP2005":27995984,"REGION":142,"SUBREGION":145,"LON":43.772,"LAT":33.048},"arcs":[[1761,1762,1763,1764,1765,1766,-1724]]},{"type":"MultiPolygon","properties":{"FIPS":"JA","ISO2":"JP","ISO3":"JPN","UN":392,"NAME":"Japan","AREA":36450,"POP2005":12789674,"REGION":142,"SUBREGION":30,"LON":139.068,"LAT":36.491},"arcs":[[[1767]],[[1768]],[[1769]],[[1770]],[[1771]],[[1772]],[[1773]],[[1774]],[[1775]],[[1776]],[[1777]],[[1778]],[[1779]],[[1780]],[[1781]],[[1782]],[[1783]],[[1784]],[[1785]],[[1786]],[[1787]],[[1788]],[[1789]],[[1790]],[[1791]],[[1792]],[[1793]],[[1794]],[[1795]],[[1796]],[[1797]],[[1798]],[[1799]],[[1800]],[[1801]],[[1802]],[[1803]],[[1804]],[[1805]],[[1806]],[[1807]],[[1808]],[[1809]],[[1810]],[[1811]],[[1812]],[[1813]],[[1814]],[[1815]],[[1816]],[[1817]],[[1818]],[[1819]],[[1820]],[[1821]],[[1822]],[[1823]]]},{"type":"Polygon","properties":{"FIPS":"JM","ISO2":"JM","ISO3":"JAM","UN":388,"NAME":"Jamaica","AREA":1083,"POP2005":2682469,"REGION":19,"SUBREGION":29,"LON":-77.32,"LAT":18.151},"arcs":[[1824]]},{"type":"Polygon","properties":{"FIPS":"JO","ISO2":"JO","ISO3":"JOR","UN":400,"NAME":"Jordan","AREA":8824,"POP2005":5544066,"REGION":142,"SUBREGION":145,"LON":36.319,"LAT":30.703},"arcs":[[1825,-1730,1826,-1728,1827,-1765,1828]]},{"type":"MultiPolygon","properties":{"FIPS":"KE","ISO2":"KE","ISO3":"KEN","UN":404,"NAME":"Kenya","AREA":56914,"POP2005":35598952,"REGION":2,"SUBREGION":14,"LON":37.858,"LAT":0.53},"arcs":[[[1829]],[[-1214,1830,1831,1832,1833,1834]]]},{"type":"Polygon","properties":{"FIPS":"KG","ISO2":"KG","ISO3":"KGZ","UN":417,"NAME":"Kyrgyzstan","AREA":19180,"POP2005":5203547,"REGION":142,"SUBREGION":143,"LON":74.555,"LAT":41.465},"arcs":[[-898,1835,1836,1837]]},{"type":"MultiPolygon","properties":{"FIPS":"KN","ISO2":"KP","ISO3":"PRK","UN":408,"NAME":"Korea, Democratic People's Republic of","AREA":12041,"POP2005":23615611,"REGION":142,"SUBREGION":30,"LON":126.451,"LAT":39.778},"arcs":[[[1838]],[[1839,1840,1841,-882,1842]]]},{"type":"MultiPolygon","properties":{"FIPS":"KR","ISO2":"KI","ISO3":"KIR","UN":296,"NAME":"Kiribati","AREA":73,"POP2005":92003,"REGION":9,"SUBREGION":57,"LON":175.036,"LAT":-1.508},"arcs":[[[1843]],[[1844]],[[1845]],[[1846]],[[1847]],[[1848]],[[1849]],[[1850]],[[1851]],[[1852]],[[1853]],[[1854]],[[1855]],[[1856]],[[1857]],[[1858]],[[1859]],[[1860]],[[1861]],[[1862]],[[1863]],[[1864]],[[1865]],[[1866]],[[1867]],[[1868]]]},{"type":"MultiPolygon","properties":{"FIPS":"KS","ISO2":"KR","ISO3":"KOR","UN":410,"NAME":"Korea, Republic of","AREA":9873,"POP2005":47869837,"REGION":142,"SUBREGION":30,"LON":128.103,"LAT":36.504},"arcs":[[[1869]],[[1870]],[[1871]],[[1872]],[[1873]],[[1874]],[[1875]],[[1876]],[[1877]],[[1878]],[[1879]],[[1880]],[[1881]],[[1882]],[[1883]],[[1884]],[[1885]],[[-1841,1886]]]},{"type":"MultiPolygon","properties":{"FIPS":"KU","ISO2":"KW","ISO3":"KWT","UN":414,"NAME":"Kuwait","AREA":1782,"POP2005":2700,"REGION":142,"SUBREGION":145,"LON":47.376,"LAT":29.476},"arcs":[[[1887]],[[1888]],[[1889]],[[1890,1891,-1763]]]},{"type":"MultiPolygon","properties":{"FIPS":"KZ","ISO2":"KZ","ISO3":"KAZ","UN":398,"NAME":"Kazakhstan","AREA":269970,"POP2005":15210609,"REGION":142,"SUBREGION":143,"LON":67.301,"LAT":48.16},"arcs":[[[1892]],[[1893]],[[1894]],[[-899,-1838,1895,1896,1897,1898]]]},{"type":"Polygon","properties":{"FIPS":"LA","ISO2":"LA","ISO3":"LAO","UN":418,"NAME":"Lao People's Democratic Republic","AREA":23080,"POP2005":566391,"REGION":142,"SUBREGION":35,"LON":102.471,"LAT":19.905},"arcs":[[-829,1899,-245,-889,1900]]},{"type":"Polygon","properties":{"FIPS":"LE","ISO2":"LB","ISO3":"LBN","UN":422,"NAME":"Lebanon","AREA":1023,"POP2005":401074,"REGION":142,"SUBREGION":145,"LON":35.888,"LAT":33.92},"arcs":[[-1734,1901,1902]]},{"type":"Polygon","properties":{"FIPS":"LG","ISO2":"LV","ISO3":"LVA","UN":428,"NAME":"Latvia","AREA":6205,"POP2005":2301793,"REGION":150,"SUBREGION":154,"LON":25.641,"LAT":56.858},"arcs":[[-1202,1903,1904,1905,1906]]},{"type":"Polygon","properties":{"FIPS":"BO","ISO2":"BY","ISO3":"BLR","UN":112,"NAME":"Belarus","AREA":20748,"POP2005":9795287,"REGION":150,"SUBREGION":151,"LON":28.047,"LAT":53.54},"arcs":[[-1905,1907,1908,1909,1910]]},{"type":"MultiPolygon","properties":{"FIPS":"LH","ISO2":"LT","ISO3":"LTU","UN":440,"NAME":"Lithuania","AREA":6268,"POP2005":3425077,"REGION":150,"SUBREGION":154,"LON":23.897,"LAT":55.336},"arcs":[[[1911,1912]],[[-1911,1913,1914,1915,-1906]]]},{"type":"Polygon","properties":{"FIPS":"LI","ISO2":"LR","ISO3":"LBR","UN":430,"NAME":"Liberia","AREA":9632,"POP2005":3441796,"REGION":2,"SUBREGION":11,"LON":-9.657,"LAT":6.682},"arcs":[[1916,-1636,-1758,1917]]},{"type":"Polygon","properties":{"FIPS":"LO","ISO2":"SK","ISO3":"SVK","UN":703,"NAME":"Slovakia","AREA":4808,"POP2005":5386995,"REGION":150,"SUBREGION":151,"LON":19.491,"LAT":48.707},"arcs":[[-1217,-1227,1918,1919,-1680]]},{"type":"Polygon","properties":{"FIPS":"LS","ISO2":"LI","ISO3":"LIE","UN":438,"NAME":"Liechtenstein","AREA":16,"POP2005":34598,"REGION":150,"SUBREGION":155,"LON":9.555,"LAT":47.153},"arcs":[[-1222,1920]]},{"type":"Polygon","properties":{"FIPS":"LY","ISO2":"LY","ISO3":"LBY","UN":434,"NAME":"Libyan Arab Jamahiriya","AREA":175954,"POP2005":5918217,"REGION":2,"SUBREGION":15,"LON":18.023,"LAT":27.044},"arcs":[[1921,1922,-1186,1923,-1066,1924,-4]]},{"type":"MultiPolygon","properties":{"FIPS":"MA","ISO2":"MG","ISO3":"MDG","UN":450,"NAME":"Madagascar","AREA":58154,"POP2005":18642586,"REGION":2,"SUBREGION":14,"LON":46.706,"LAT":-19.374},"arcs":[[[1925]],[[1926]],[[1927]]]},{"type":"Polygon","properties":{"FIPS":"MB","ISO2":"MQ","ISO3":"MTQ","UN":474,"NAME":"Martinique","AREA":106,"POP2005":395896,"REGION":19,"SUBREGION":29,"LON":-61.021,"LAT":14.653},"arcs":[[1928]]},{"type":"Polygon","properties":{"FIPS":"MG","ISO2":"MN","ISO3":"MNG","UN":496,"NAME":"Mongolia","AREA":156650,"POP2005":2580704,"REGION":142,"SUBREGION":30,"LON":102.876,"LAT":46.056},"arcs":[[1929,-901]]},{"type":"Polygon","properties":{"FIPS":"MH","ISO2":"MS","ISO3":"MSR","UN":500,"NAME":"Montserrat","AREA":10,"POP2005":5628,"REGION":19,"SUBREGION":29,"LON":-62.187,"LAT":16.736},"arcs":[[1930]]},{"type":"Polygon","properties":{"FIPS":"MK","ISO2":"MK","ISO3":"MKD","UN":807,"NAME":"The former Yugoslav Republic of Macedonia","AREA":2543,"POP2005":2033655,"REGION":150,"SUBREGION":39,"LON":21.698,"LAT":41.6},"arcs":[[1931,-365,-1627,-24]]},{"type":"Polygon","properties":{"FIPS":"ML","ISO2":"ML","ISO3":"MLI","UN":466,"NAME":"Mali","AREA":122019,"POP2005":1161109,"REGION":2,"SUBREGION":11,"LON":-3.524,"LAT":17.35},"arcs":[[1932,1933,-6,1934,1935,-1759,-1634]]},{"type":"Polygon","properties":{"FIPS":"MO","ISO2":"MA","ISO3":"MAR","UN":504,"NAME":"Morocco","AREA":44630,"POP2005":30494991,"REGION":2,"SUBREGION":15,"LON":-5.758,"LAT":32.706},"arcs":[[1936,1937,1938,1939,-9,1940,1941]]},{"type":"MultiPolygon","properties":{"FIPS":"MP","ISO2":"MU","ISO3":"MUS","UN":480,"NAME":"Mauritius","AREA":203,"POP2005":1241173,"REGION":2,"SUBREGION":14,"LON":57.583,"LAT":-20.255},"arcs":[[[1942]],[[1943]]]},{"type":"MultiPolygon","properties":{"FIPS":"MR","ISO2":"MR","ISO3":"MRT","UN":478,"NAME":"Mauritania","AREA":102522,"POP2005":2963105,"REGION":2,"SUBREGION":11,"LON":-10.332,"LAT":20.26},"arcs":[[[1944]],[[-1934,1945,1946,1947,-7]]]},{"type":"MultiPolygon","properties":{"FIPS":"MT","ISO2":"MT","ISO3":"MLT","UN":470,"NAME":"Malta","AREA":32,"POP2005":402617,"REGION":150,"SUBREGION":39,"LON":14.442,"LAT":35.89},"arcs":[[[1948]],[[1949]]]},{"type":"MultiPolygon","properties":{"FIPS":"MU","ISO2":"OM","ISO3":"OMN","UN":512,"NAME":"Oman","AREA":30950,"POP2005":2507042,"REGION":142,"SUBREGION":145,"LON":57.407,"LAT":21.656},"arcs":[[[1950]],[[1951]],[[1952,1953,1954,1955]],[[1956,1957]]]},{"type":"MultiPolygon","properties":{"FIPS":"MV","ISO2":"MV","ISO3":"MDV","UN":462,"NAME":"Maldives","AREA":30,"POP2005":295297,"REGION":142,"SUBREGION":34,"LON":72.92,"LAT":3.548},"arcs":[[[1958]],[[1959]]]},{"type":"MultiPolygon","properties":{"FIPS":"MX","ISO2":"MX","ISO3":"MEX","UN":484,"NAME":"Mexico","AREA":190869,"POP2005":104266392,"REGION":19,"SUBREGION":13,"LON":-102.535,"LAT":23.951},"arcs":[[[1960]],[[1961]],[[1962]],[[1963]],[[1964]],[[1965]],[[1966]],[[1967]],[[1968]],[[1969]],[[1970]],[[1971]],[[1972]],[[1973]],[[1974]],[[1975]],[[1976]],[[1977]],[[1978]],[[1979]],[[1980]],[[1981]],[[1982]],[[1983]],[[1984]],[[1985]],[[1986]],[[1987]],[[1988,-202,-1628,1989,1990]]]},{"type":"MultiPolygon","properties":{"FIPS":"MY","ISO2":"MY","ISO3":"MYS","UN":458,"NAME":"Malaysia","AREA":32855,"POP2005":25652985,"REGION":142,"SUBREGION":35,"LON":102.195,"LAT":4.201},"arcs":[[[1991]],[[1992]],[[1993]],[[1994,1995]],[[1996]],[[1997]],[[1998]],[[1999]],[[2000]],[[2001]],[[2002]],[[2003,2004]],[[2005]],[[2006,2007,-371,2008,-370,2009]],[[2010]],[[2011]]]},{"type":"MultiPolygon","properties":{"FIPS":"MZ","ISO2":"MZ","ISO3":"MOZ","UN":508,"NAME":"Mozambique","AREA":78409,"POP2005":20532675,"REGION":2,"SUBREGION":14,"LON":37.923,"LAT":-14.422},"arcs":[[[2012]],[[2013]],[[2014]],[[2015,2016,2017,2018,2019,2020,2021,2022],[2023],[2024]]]},{"type":"MultiPolygon","properties":{"FIPS":"MI","ISO2":"MW","ISO3":"MWI","UN":454,"NAME":"Malawi","AREA":9408,"POP2005":13226091,"REGION":2,"SUBREGION":14,"LON":33.808,"LAT":-13.4},"arcs":[[[-2025]],[[-2024]],[[-2021,2025,2026]]]},{"type":"MultiPolygon","properties":{"FIPS":"NC","ISO2":"NC","ISO3":"NCL","UN":540,"NAME":"New Caledonia","AREA":1828,"POP2005":234185,"REGION":9,"SUBREGION":54,"LON":165.447,"LAT":-21.359},"arcs":[[[2027]],[[2028]],[[2029]],[[2030]],[[2031]],[[2032]],[[2033]],[[2034]],[[2035]],[[2036]],[[2037]],[[2038]]]},{"type":"Polygon","properties":{"FIPS":"NE","ISO2":"NU","ISO3":"NIU","UN":570,"NAME":"Niue","AREA":26,"POP2005":1632,"REGION":9,"SUBREGION":61,"LON":-169.869,"LAT":-19.052},"arcs":[[2039]]},{"type":"Polygon","properties":{"FIPS":"NG","ISO2":"NE","ISO3":"NER","UN":562,"NAME":"Niger","AREA":126670,"POP2005":1326419,"REGION":2,"SUBREGION":11,"LON":9.398,"LAT":17.426},"arcs":[[-5,-1925,-1065,2040,-252,2041,-1935]]},{"type":"Polygon","properties":{"FIPS":"AA","ISO2":"AW","ISO3":"ABW","UN":533,"NAME":"Aruba","AREA":0,"POP2005":102897,"REGION":19,"SUBREGION":29,"LON":-69.977,"LAT":12.517},"arcs":[[2042]]},{"type":"Polygon","properties":{"FIPS":"AV","ISO2":"AI","ISO3":"AIA","UN":660,"NAME":"Anguilla","AREA":0,"POP2005":12256,"REGION":19,"SUBREGION":29,"LON":-63.032,"LAT":18.237},"arcs":[[2043]]},{"type":"Polygon","properties":{"FIPS":"BE","ISO2":"BE","ISO3":"BEL","UN":56,"NAME":"Belgium","AREA":0,"POP2005":10398049,"REGION":150,"SUBREGION":155,"LON":4.664,"LAT":50.643},"arcs":[[2044,-1560,2045,-1330,2046,2047,2048]]},{"type":"MultiPolygon","properties":{"FIPS":"HK","ISO2":"HK","ISO3":"HKG","UN":344,"NAME":"Hong Kong","AREA":0,"POP2005":7057418,"REGION":142,"SUBREGION":30,"LON":114.129,"LAT":22.423},"arcs":[[[2049]],[[2050]],[[-884,2051]]]},{"type":"MultiPolygon","properties":{"FIPS":"CQ","ISO2":"MP","ISO3":"MNP","UN":580,"NAME":"Northern Mariana Islands","AREA":0,"POP2005":80258,"REGION":9,"SUBREGION":57,"LON":145.623,"LAT":15.005},"arcs":[[[2052]],[[2053]],[[2054]],[[2055]],[[2056]],[[2057]]]},{"type":"MultiPolygon","properties":{"FIPS":"FO","ISO2":"FO","ISO3":"FRO","UN":234,"NAME":"Faroe Islands","AREA":0,"POP2005":48205,"REGION":150,"SUBREGION":154,"LON":-6.864,"LAT":62.05},"arcs":[[[2058]],[[2059]],[[2060]],[[2061]],[[2062]],[[2063]],[[2064]],[[2065]],[[2066]]]},{"type":"Polygon","properties":{"FIPS":"AN","ISO2":"AD","ISO3":"AND","UN":20,"NAME":"Andorra","AREA":0,"POP2005":73483,"REGION":150,"SUBREGION":39,"LON":1.576,"LAT":42.549},"arcs":[[2067,-1339]]},{"type":"Polygon","properties":{"FIPS":"GI","ISO2":"GI","ISO3":"GIB","UN":292,"NAME":"Gibraltar","AREA":0,"POP2005":291,"REGION":150,"SUBREGION":39,"LON":-5.345,"LAT":36.138},"arcs":[[2068,2069]]},{"type":"Polygon","properties":{"FIPS":"IM","ISO2":"IM","ISO3":"IMN","UN":833,"NAME":"Isle of Man","AREA":0,"POP2005":78357,"REGION":150,"SUBREGION":154,"LON":-4.527,"LAT":54.229},"arcs":[[2070]]},{"type":"Polygon","properties":{"FIPS":"LU","ISO2":"LU","ISO3":"LUX","UN":442,"NAME":"Luxembourg","AREA":0,"POP2005":456613,"REGION":150,"SUBREGION":155,"LON":6.088,"LAT":49.771},"arcs":[[-1559,-1331,-2046]]},{"type":"Polygon","properties":{"FIPS":"MC","ISO2":"MO","ISO3":"MAC","UN":446,"NAME":"Macau","AREA":0,"POP2005":47309,"REGION":142,"SUBREGION":30,"LON":113.545,"LAT":22.2},"arcs":[[-886,2071]]},{"type":"Polygon","properties":{"FIPS":"MN","ISO2":"MC","ISO3":"MCO","UN":492,"NAME":"Monaco","AREA":0,"POP2005":325,"REGION":150,"SUBREGION":155,"LON":7.412,"LAT":43.75},"arcs":[[2072,-1336]]},{"type":"MultiPolygon","properties":{"FIPS":null,"ISO2":"PS","ISO3":"PSE","UN":275,"NAME":"Palestine","AREA":0,"POP2005":3762005,"REGION":142,"SUBREGION":145,"LON":35.278,"LAT":32.037},"arcs":[[[-1182,2073,-1732]],[[-1827,-1729],[-1726]]]},{"type":"Polygon","properties":{"FIPS":"MJ","ISO2":"ME","ISO3":"MNE","UN":499,"NAME":"Montenegro","AREA":0,"POP2005":607969,"REGION":150,"SUBREGION":39,"LON":19.254,"LAT":42.792},"arcs":[[-206,2074,-22,2075,-1659]]},{"type":"MultiPolygon","properties":{"FIPS":"MF","ISO2":"YT","ISO3":"MYT","UN":175,"NAME":"Mayotte","AREA":0,"POP2005":0,"REGION":2,"SUBREGION":14,"LON":45.155,"LAT":-12.777},"arcs":[[[2076]]]},{"type":"MultiPolygon","properties":{"FIPS":null,"ISO2":"AX","ISO3":"ALA","UN":248,"NAME":"Ã…land Islands","AREA":0,"POP2005":0,"REGION":150,"SUBREGION":154,"LON":19.952,"LAT":60.198},"arcs":[[[2077]],[[2078]],[[2079]],[[2080]],[[2081]]]},{"type":"Polygon","properties":{"FIPS":"NF","ISO2":"NF","ISO3":"NFK","UN":574,"NAME":"Norfolk Island","AREA":0,"POP2005":0,"REGION":9,"SUBREGION":53,"LON":167.953,"LAT":-29.037},"arcs":[[2082]]},{"type":"MultiPolygon","properties":{"FIPS":"CK","ISO2":"CC","ISO3":"CCK","UN":166,"NAME":"Cocos (Keeling) Islands","AREA":1,"POP2005":0,"REGION":0,"SUBREGION":0,"LON":96.839,"LAT":-12.173},"arcs":[[[2083]]]},{"type":"MultiPolygon","properties":{"FIPS":"AY","ISO2":"AQ","ISO3":"ATA","UN":10,"NAME":"Antarctica","AREA":0,"POP2005":0,"REGION":0,"SUBREGION":0,"LON":21.304,"LAT":-80.446},"arcs":[[[2084]],[[2085]],[[2086]],[[2087]],[[2088]],[[2089]],[[2090]],[[2091]],[[2092]],[[2093]],[[2094]],[[2095]],[[2096]],[[2097]],[[2098]],[[2099]],[[2100]],[[2101]],[[2102]],[[2103]],[[2104]],[[2105]],[[2106]],[[2107]],[[2108]],[[2109]],[[2110]],[[2111]],[[2112]],[[2113]],[[2114]],[[2115]],[[2116]],[[2117]],[[2118]],[[2119]],[[2120]],[[2121]],[[2122]],[[2123]],[[2124]],[[2125]],[[2126]],[[2127]],[[2128]],[[2129]],[[2130]],[[2131]],[[2132]],[[2133]],[[2134]],[[2135]],[[2136]],[[2137]],[[2138]],[[2139]],[[2140]],[[2141]],[[2142]],[[2143]],[[2144]],[[2145]],[[2146]],[[2147]],[[2148]],[[2149]],[[2150]],[[2151]],[[2152]],[[2153]],[[2154]],[[2155]],[[2156]],[[2157]],[[2158]],[[2159]],[[2160]],[[2161]],[[2162]],[[2163]],[[2164]],[[2165]],[[2166]],[[2167]],[[2168]],[[2169]],[[2170]],[[2171]],[[2172]],[[2173]],[[2174]],[[2175]],[[2176]],[[2177]],[[2178]],[[2179]],[[2180]],[[2181]],[[2182]],[[2183]],[[2184]],[[2185]],[[2186]],[[2187]],[[2188]],[[2189]],[[2190]],[[2191]],[[2192]],[[2193]],[[2194]],[[2195]],[[2196]],[[2197]],[[2198]],[[2199]],[[2200]],[[2201]],[[2202]],[[2203]],[[2204]],[[2205]],[[2206]],[[2207]],[[2208]],[[2209]],[[2210]],[[2211]],[[2212]],[[2213]],[[2214]],[[2215]],[[2216]],[[2217]],[[2218]],[[2219]]]},{"type":"Polygon","properties":{"FIPS":"BV","ISO2":"BV","ISO3":"BVT","UN":74,"NAME":"Bouvet Island","AREA":0,"POP2005":0,"REGION":0,"SUBREGION":0,"LON":3.412,"LAT":-54.422},"arcs":[[2220]]},{"type":"MultiPolygon","properties":{"FIPS":"FS","ISO2":"TF","ISO3":"ATF","UN":260,"NAME":"French Southern and Antarctic Lands","AREA":0,"POP2005":0,"REGION":0,"SUBREGION":0,"LON":69.117,"LAT":-49.302},"arcs":[[[2221]],[[2222]],[[2223]],[[2224]],[[2225]],[[2226]],[[2227]],[[2228]],[[2229]],[[2230]],[[2231]],[[2232]],[[2233]],[[2234]]]},{"type":"Polygon","properties":{"FIPS":"HM","ISO2":"HM","ISO3":"HMD","UN":334,"NAME":"Heard Island and McDonald Islands","AREA":0,"POP2005":0,"REGION":0,"SUBREGION":0,"LON":73.507,"LAT":-53.111},"arcs":[[2235]]},{"type":"MultiPolygon","properties":{"FIPS":"IO","ISO2":"IO","ISO3":"IOT","UN":86,"NAME":"British Indian Ocean Territory","AREA":0,"POP2005":0,"REGION":0,"SUBREGION":0,"LON":72.416,"LAT":-7.335},"arcs":[[[2236]],[[2237]]]},{"type":"Polygon","properties":{"FIPS":"KT","ISO2":"CX","ISO3":"CXR","UN":162,"NAME":"Christmas Island","AREA":0,"POP2005":0,"REGION":0,"SUBREGION":0,"LON":105.704,"LAT":-10.444},"arcs":[[2238]]},{"type":"MultiPolygon","properties":{"FIPS":null,"ISO2":"UM","ISO3":"UMI","UN":581,"NAME":"United States Minor Outlying Islands","AREA":0,"POP2005":0,"REGION":0,"SUBREGION":0,"LON":-160.027,"LAT":-0.385},"arcs":[[[2239]],[[2240]]]},{"type":"MultiPolygon","properties":{"FIPS":"NH","ISO2":"VU","ISO3":"VUT","UN":548,"NAME":"Vanuatu","AREA":1219,"POP2005":215366,"REGION":9,"SUBREGION":54,"LON":166.899,"LAT":-15.376},"arcs":[[[2241]],[[2242]],[[2243]],[[2244]],[[2245]],[[2246]],[[2247]],[[2248]],[[2249]],[[2250]],[[2251]],[[2252]],[[2253]],[[2254]],[[2255]],[[2256]],[[2257]],[[2258]],[[2259]],[[2260]],[[2261]],[[2262]]]},{"type":"MultiPolygon","properties":{"FIPS":"NI","ISO2":"NG","ISO3":"NGA","UN":566,"NAME":"Nigeria","AREA":91077,"POP2005":141356083,"REGION":2,"SUBREGION":11,"LON":8.105,"LAT":9.594},"arcs":[[[2263]],[[2264]],[[-1064,-1062,2265,-253,-2041]]]},{"type":"MultiPolygon","properties":{"FIPS":"NL","ISO2":"NL","ISO3":"NLD","UN":528,"NAME":"Netherlands","AREA":3388,"POP2005":1632769,"REGION":150,"SUBREGION":155,"LON":5.389,"LAT":52.077},"arcs":[[[-2048,2266]],[[2267]],[[2268]],[[2269]],[[2270]],[[2271]],[[-1561,-2045,2272]],[[2273]],[[2274]]]},{"type":"MultiPolygon","properties":{"FIPS":"NO","ISO2":"NO","ISO3":"NOR","UN":578,"NAME":"Norway","AREA":30625,"POP2005":4638836,"REGION":150,"SUBREGION":154,"LON":8.74,"LAT":61.152},"arcs":[[[2275]],[[2276]],[[2277]],[[2278]],[[2279]],[[2280]],[[2281]],[[2282]],[[2283]],[[2284]],[[2285]],[[2286]],[[2287]],[[2288]],[[2289]],[[2290]],[[2291]],[[2292]],[[2293]],[[2294]],[[2295]],[[2296]],[[2297]],[[2298]],[[2299]],[[2300]],[[2301]],[[2302]],[[2303]],[[2304]],[[2305]],[[2306]],[[2307]],[[2308]],[[2309]],[[2310]],[[2311]],[[2312]],[[2313]],[[2314]],[[2315]],[[2316]],[[2317]],[[2318]],[[2319]],[[2320]],[[2321]],[[2322]],[[2323]],[[2324]],[[2325]],[[2326]],[[2327]],[[2328]],[[2329]],[[2330]],[[2331]],[[2332]],[[2333]],[[2334]],[[2335]],[[2336]],[[2337]],[[2338]],[[2339]],[[2340]],[[2341]],[[2342]],[[2343]],[[2344]],[[2345]],[[2346]],[[2347]],[[2348]],[[2349]],[[2350]],[[2351]],[[2352]],[[2353]],[[2354]],[[2355]],[[2356]],[[2357]],[[2358]],[[2359,-1256,2360,2361]],[[2362]]]},{"type":"Polygon","properties":{"FIPS":"NP","ISO2":"NP","ISO3":"NPL","UN":524,"NAME":"Nepal","AREA":14300,"POP2005":27093656,"REGION":142,"SUBREGION":34,"LON":83.939,"LAT":28.253},"arcs":[[-893,-1710]]},{"type":"Polygon","properties":{"FIPS":"NR","ISO2":"NR","ISO3":"NRU","UN":520,"NAME":"Nauru","AREA":2,"POP2005":10111,"REGION":9,"SUBREGION":57,"LON":166.93,"LAT":-0.522},"arcs":[[2363]]},{"type":"Polygon","properties":{"FIPS":"NS","ISO2":"SR","ISO3":"SUR","UN":740,"NAME":"Suriname","AREA":15600,"POP2005":452468,"REGION":19,"SUBREGION":5,"LON":-55.912,"LAT":4.127},"arcs":[[-1228,-354,-1640,2364]]},{"type":"MultiPolygon","properties":{"FIPS":"NU","ISO2":"NI","ISO3":"NIC","UN":558,"NAME":"Nicaragua","AREA":12140,"POP2005":5462539,"REGION":19,"SUBREGION":13,"LON":-85.034,"LAT":12.84},"arcs":[[[2365]],[[2366,-1091,2367,-1650]]]},{"type":"MultiPolygon","properties":{"FIPS":"NZ","ISO2":"NZ","ISO3":"NZL","UN":554,"NAME":"New Zealand","AREA":26799,"POP2005":4097112,"REGION":9,"SUBREGION":53,"LON":172.235,"LAT":-42.634},"arcs":[[[2368]],[[2369]],[[2370]],[[2371]],[[2372]],[[2373]],[[2374]],[[2375]],[[2376]],[[2377]],[[2378]],[[2379]],[[2380]],[[2381]],[[2382]],[[2383]],[[2384]],[[2385]],[[2386]],[[2387]],[[2388]]]},{"type":"Polygon","properties":{"FIPS":"PA","ISO2":"PY","ISO3":"PRY","UN":600,"NAME":"Paraguay","AREA":39730,"POP2005":5904342,"REGION":19,"SUBREGION":5,"LON":-58.391,"LAT":-23.236},"arcs":[[-47,-211,-358]]},{"type":"Polygon","properties":{"FIPS":"PE","ISO2":"PE","ISO3":"PER","UN":604,"NAME":"Peru","AREA":128000,"POP2005":27274266,"REGION":19,"SUBREGION":5,"LON":-75.552,"LAT":-9.326},"arcs":[[-1080,-359,-209,-1052,2389,-1176]]},{"type":"MultiPolygon","properties":{"FIPS":"PK","ISO2":"PK","ISO3":"PAK","UN":586,"NAME":"Pakistan","AREA":77088,"POP2005":158080591,"REGION":142,"SUBREGION":34,"LON":69.386,"LAT":29.967},"arcs":[[[2390]],[[-1712,2391,-1722,-903,-895]]]},{"type":"Polygon","properties":{"FIPS":"PL","ISO2":"PL","ISO3":"POL","UN":616,"NAME":"Poland","AREA":30629,"POP2005":38195558,"REGION":150,"SUBREGION":151,"LON":19.401,"LAT":52.125},"arcs":[[-1226,-1557,2392,-1547,2393,2394,2395,2396,-1914,-1910,2397,-1919]]},{"type":"MultiPolygon","properties":{"FIPS":"PM","ISO2":"PA","ISO3":"PAN","UN":591,"NAME":"Panama","AREA":7443,"POP2005":3231502,"REGION":19,"SUBREGION":13,"LON":-80.92,"LAT":8.384},"arcs":[[[2398]],[[2399]],[[2400]],[[2401]],[[2402]],[[2403]],[[2404]],[[2405]],[[2406]],[[2407]],[[2408]],[[2409]],[[-1083,2410,-1089,2411]]]},{"type":"MultiPolygon","properties":{"FIPS":"PO","ISO2":"PT","ISO3":"PRT","UN":620,"NAME":"Portugal","AREA":9150,"POP2005":10528226,"REGION":150,"SUBREGION":39,"LON":-8.058,"LAT":40.309},"arcs":[[[2412]],[[2413]],[[2414]],[[2415]],[[2416]],[[2417]],[[2418]],[[2419,2420]]]},{"type":"MultiPolygon","properties":{"FIPS":"PP","ISO2":"PG","ISO3":"PNG","UN":598,"NAME":"Papua New Guinea","AREA":45286,"POP2005":6069715,"REGION":9,"SUBREGION":54,"LON":143.459,"LAT":-5.949},"arcs":[[[2421]],[[2422]],[[2423]],[[2424]],[[2425]],[[2426]],[[2427]],[[2428]],[[2429]],[[2430]],[[2431]],[[2432]],[[2433]],[[2434]],[[2435]],[[2436]],[[2437]],[[2438]],[[2439]],[[2440]],[[2441]],[[2442]],[[2443]],[[2444]],[[2445]],[[2446]],[[2447]],[[2448]],[[2449]],[[2450]],[[2451]],[[2452]],[[2453]],[[2454]],[[2455]],[[2456]],[[2457]],[[2458]],[[2459]],[[2460]],[[2461,2462]],[[2463]],[[2464]],[[2465]],[[2466]],[[2467]],[[2468]]]},{"type":"MultiPolygon","properties":{"FIPS":"PU","ISO2":"GW","ISO3":"GNB","UN":624,"NAME":"Guinea-Bissau","AREA":2812,"POP2005":1596929,"REGION":2,"SUBREGION":11,"LON":-14.651,"LAT":12.125},"arcs":[[[2469]],[[2470]],[[2471]],[[2472]],[[2473]],[[2474]],[[2475]],[[2476]],[[2477]],[[2478]],[[2479]],[[2480]],[[2481]],[[-1632,2482,2483]]]},{"type":"Polygon","properties":{"FIPS":"QA","ISO2":"QA","ISO3":"QAT","UN":634,"NAME":"Qatar","AREA":1100,"POP2005":796186,"REGION":142,"SUBREGION":145,"LON":51.191,"LAT":25.316},"arcs":[[2484,2485]]},{"type":"Polygon","properties":{"FIPS":"RE","ISO2":"RE","ISO3":"REU","UN":638,"NAME":"Reunion","AREA":250,"POP2005":785159,"REGION":2,"SUBREGION":14,"LON":55.538,"LAT":-21.122},"arcs":[[2486]]},{"type":"Polygon","properties":{"FIPS":"RO","ISO2":"RO","ISO3":"ROU","UN":642,"NAME":"Romania","AREA":22987,"POP2005":21627557,"REGION":150,"SUBREGION":151,"LON":24.969,"LAT":45.844},"arcs":[[2487,2488,2489,2490,-367,2491,-1682]]},{"type":"Polygon","properties":{"FIPS":"MD","ISO2":"MD","ISO3":"MDA","UN":498,"NAME":"Republic of Moldova","AREA":3288,"POP2005":3876661,"REGION":150,"SUBREGION":151,"LON":28.599,"LAT":47.193},"arcs":[[2492,-2489]]},{"type":"MultiPolygon","properties":{"FIPS":"RP","ISO2":"PH","ISO3":"PHL","UN":608,"NAME":"Philippines","AREA":29817,"POP2005":84566163,"REGION":142,"SUBREGION":35,"LON":122.466,"LAT":11.118},"arcs":[[[2493]],[[2494]],[[2495]],[[2496]],[[2497]],[[2498]],[[2499]],[[2500]],[[2501]],[[2502]],[[2503]],[[2504]],[[2505]],[[2506]],[[2507]],[[2508]],[[2509]],[[2510]],[[2511]],[[2512]],[[2513]],[[2514]],[[2515]],[[2516]],[[2517]],[[2518]],[[2519]],[[2520]],[[2521]],[[2522]],[[2523]],[[2524]],[[2525]],[[2526]],[[2527]],[[2528]],[[2529]],[[2530]],[[2531]],[[2532]],[[2533]],[[2534]],[[2535]],[[2536]],[[2537]],[[2538]],[[2539]],[[2540]],[[2541]],[[2542]],[[2543]],[[2544]],[[2545]],[[2546]],[[2547]],[[2548]],[[2549]],[[2550]],[[2551]],[[2552]],[[2553]],[[2554]],[[2555]],[[2556]],[[2557]],[[2558]],[[2559]],[[2560]],[[2561]]]},{"type":"MultiPolygon","properties":{"FIPS":"RQ","ISO2":"PR","ISO3":"PRI","UN":630,"NAME":"Puerto Rico","AREA":887,"POP2005":3946779,"REGION":19,"SUBREGION":29,"LON":-66.466,"LAT":18.221},"arcs":[[[2562]],[[2563]],[[2564]],[[2565]]]},{"type":"MultiPolygon","properties":{"FIPS":"RS","ISO2":"RU","ISO3":"RUS","UN":643,"NAME":"Russia","AREA":1638094,"POP2005":143953092,"REGION":150,"SUBREGION":151,"LON":96.689,"LAT":61.988},"arcs":[[[2566]],[[2567]],[[2568]],[[2569]],[[2570]],[[2571]],[[2572]],[[2573]],[[2574]],[[2575]],[[2576]],[[2577]],[[2578]],[[2579]],[[2580]],[[2581]],[[2582]],[[2583]],[[2584]],[[2585]],[[2586]],[[2587]],[[2588]],[[2589]],[[2590]],[[-2395,2591]],[[2592]],[[2593]],[[2594]],[[-2397,2595,-1912,2596,-1915]],[[2597]],[[2598]],[[2599]],[[2600]],[[2601]],[[2602]],[[2603]],[[2604]],[[2605]],[[2606]],[[2607]],[[2608]],[[2609]],[[2610]],[[2611]],[[2612]],[[2613]],[[2614]],[[2615]],[[2616]],[[2617]],[[2618]],[[2619]],[[2620]],[[2621]],[[2622]],[[2623]],[[2624]],[[2625]],[[2626]],[[2627]],[[2628]],[[2629]],[[2630]],[[2631]],[[2632]],[[2633]],[[2634]],[[2635]],[[2636]],[[2637]],[[2638]],[[2639]],[[2640]],[[2641]],[[2642]],[[2643]],[[2644]],[[2645]],[[2646]],[[2647]],[[2648]],[[2649]],[[2650]],[[2651]],[[2652]],[[2653]],[[2654]],[[2655]],[[2656]],[[2657]],[[2658]],[[2659]],[[2660]],[[2661]],[[2662]],[[2663]],[[2664]],[[2665]],[[2666]],[[2667]],[[2668]],[[2669]],[[2670]],[[2671]],[[2672]],[[2673]],[[2674]],[[2675]],[[2676]],[[2677]],[[2678]],[[2679]],[[2680]],[[2681]],[[2682]],[[2683]],[[2684]],[[2685]],[[2686]],[[2687]],[[2688]],[[2689]],[[2690]],[[2691]],[[2692]],[[2693]],[[2694]],[[2695]],[[2696]],[[2697]],[[2698]],[[2699]],[[2700]],[[2701]],[[2702]],[[2703]],[[2704]],[[2705]],[[2706]],[[2707]],[[2708]],[[2709]],[[2710]],[[2711]],[[2712]],[[2713]],[[2714]],[[2715]],[[2716]],[[2717]],[[2718]],[[2719]],[[2720]],[[2721]],[[2722]],[[-1843,-902,-1930,-900,-1899,2723,-20,-1346,2724,2725,-1908,-1904,-1201,2726,-1253,-2360,2727]],[[2728]],[[2729]],[[2730]],[[2731]],[[2732]],[[2733]],[[2734]],[[2735]],[[2736]],[[2737]],[[2738]],[[2739]],[[2740]],[[2741]],[[2742]],[[2743]],[[2744]],[[2745]],[[2746]],[[2747]],[[2748]],[[2749]],[[2750]],[[2751]],[[2752]],[[2753]],[[2754]],[[2755]],[[2756]],[[2757]],[[2758]],[[2759]],[[2760]],[[2761]],[[2762]],[[2763]],[[2764]],[[2765]],[[2766]],[[2767]],[[2768]],[[2769]],[[2770]],[[2771]],[[2772]],[[2773]],[[2774]],[[2775]],[[2776]],[[2777]],[[2778]],[[2779]],[[2780]],[[2781]],[[2782]],[[2783]],[[2784]],[[2785]],[[2786]],[[2787]],[[2788]]]},{"type":"Polygon","properties":{"FIPS":"RW","ISO2":"RW","ISO3":"RWA","UN":646,"NAME":"Rwanda","AREA":2467,"POP2005":9233793,"REGION":2,"SUBREGION":14,"LON":29.917,"LAT":-1.998},"arcs":[[-844,2789,2790,-850]]},{"type":"MultiPolygon","properties":{"FIPS":"SA","ISO2":"SA","ISO3":"SAU","UN":682,"NAME":"Saudi Arabia","AREA":214969,"POP2005":2361236,"REGION":142,"SUBREGION":145,"LON":44.585,"LAT":24.023},"arcs":[[[2791]],[[2792]],[[2793]],[[2794]],[[-1892,2795,-2485,2796,2797,-1955,2798,2799,-1829,-1764]]]},{"type":"MultiPolygon","properties":{"FIPS":"SC","ISO2":"KN","ISO3":"KNA","UN":659,"NAME":"Saint Kitts and Nevis","AREA":36,"POP2005":49138,"REGION":19,"SUBREGION":29,"LON":-62.769,"LAT":17.34},"arcs":[[[2800]],[[2801]]]},{"type":"MultiPolygon","properties":{"FIPS":"SE","ISO2":"SC","ISO3":"SYC","UN":690,"NAME":"Seychelles","AREA":46,"POP2005":85532,"REGION":2,"SUBREGION":14,"LON":55.474,"LAT":-4.647},"arcs":[[[2802]],[[2803]],[[2804]],[[2805]],[[2806]],[[2807]]]},{"type":"MultiPolygon","properties":{"FIPS":"SF","ISO2":"ZA","ISO3":"ZAF","UN":710,"NAME":"South Africa","AREA":121447,"POP2005":47938663,"REGION":2,"SUBREGION":18,"LON":23.121,"LAT":-30.558},"arcs":[[[2808]],[[2809]],[[-2018,2810,-2016,2811,2812,2813,2814],[2815]]]},{"type":"Polygon","properties":{"FIPS":"LT","ISO2":"LS","ISO3":"LSO","UN":426,"NAME":"Lesotho","AREA":3035,"POP2005":1980831,"REGION":2,"SUBREGION":18,"LON":28.243,"LAT":-29.581},"arcs":[[-2816]]},{"type":"Polygon","properties":{"FIPS":"BC","ISO2":"BW","ISO3":"BWA","UN":72,"NAME":"Botswana","AREA":56673,"POP2005":1835938,"REGION":2,"SUBREGION":18,"LON":23.815,"LAT":-22.182},"arcs":[[2816,2817,-2814]]},{"type":"Polygon","properties":{"FIPS":"SG","ISO2":"SN","ISO3":"SEN","UN":686,"NAME":"Senegal","AREA":19253,"POP2005":1177034,"REGION":2,"SUBREGION":11,"LON":-14.881,"LAT":15.013},"arcs":[[-1946,-1933,-1633,-2484,2818,-1342,2819]]},{"type":"Polygon","properties":{"FIPS":"SI","ISO2":"SI","ISO3":"SVN","UN":705,"NAME":"Slovenia","AREA":2014,"POP2005":1999425,"REGION":150,"SUBREGION":39,"LON":14.827,"LAT":46.124},"arcs":[[-1219,-1679,-1678,2820,-1735]]},{"type":"MultiPolygon","properties":{"FIPS":"SL","ISO2":"SL","ISO3":"SLE","UN":694,"NAME":"Sierra Leone","AREA":7162,"POP2005":5586403,"REGION":2,"SUBREGION":11,"LON":-11.792,"LAT":8.56},"arcs":[[[2821]],[[-1917,2822,-1637]]]},{"type":"Polygon","properties":{"FIPS":"SN","ISO2":"SG","ISO3":"SGP","UN":702,"NAME":"Singapore","AREA":67,"POP2005":4327468,"REGION":142,"SUBREGION":35,"LON":103.808,"LAT":1.351},"arcs":[[2823]]},{"type":"Polygon","properties":{"FIPS":"SO","ISO2":"SO","ISO3":"SOM","UN":706,"NAME":"Somalia","AREA":62734,"POP2005":8196395,"REGION":2,"SUBREGION":14,"LON":48.316,"LAT":9.774},"arcs":[[-1154,2824,-1831,-1213]]},{"type":"MultiPolygon","properties":{"FIPS":"SP","ISO2":"ES","ISO3":"ESP","UN":724,"NAME":"Spain","AREA":49904,"POP2005":43397491,"REGION":150,"SUBREGION":39,"LON":-3.649,"LAT":40.227},"arcs":[[[2825]],[[2826]],[[2827]],[[2828]],[[2829]],[[2830]],[[2831]],[[2832,-1939]],[[-1937,2833]],[[2834]],[[2835]],[[2836]],[[2837]],[[-1340,-2068,-1338,2838,-2070,2839,-2421,2840]]]},{"type":"Polygon","properties":{"FIPS":"ST","ISO2":"LC","ISO3":"LCA","UN":662,"NAME":"Saint Lucia","AREA":61,"POP2005":16124,"REGION":19,"SUBREGION":29,"LON":-60.969,"LAT":13.898},"arcs":[[2841]]},{"type":"MultiPolygon","properties":{"FIPS":"SU","ISO2":"SD","ISO3":"SDN","UN":736,"NAME":"Sudan","AREA":237600,"POP2005":36899747,"REGION":2,"SUBREGION":15,"LON":30.05,"LAT":13.832},"arcs":[[[2842]],[[2843,-1207,-1215,-1835,2844,-842,-1092,-1067,-1924,-1185]]]},{"type":"MultiPolygon","properties":{"FIPS":"SW","ISO2":"SE","ISO3":"SWE","UN":752,"NAME":"Sweden","AREA":41033,"POP2005":9038049,"REGION":150,"SUBREGION":154,"LON":15.27,"LAT":62.011},"arcs":[[[2845]],[[2846]],[[2847]],[[2848]],[[2849]],[[2850]],[[2851]],[[2852]],[[2853]],[[2854]],[[2855]],[[2856]],[[2857]],[[2858]],[[2859]],[[2860]],[[2861,-2361,-1255]]]},{"type":"Polygon","properties":{"FIPS":"SY","ISO2":"SY","ISO3":"SYR","UN":760,"NAME":"Syrian Arab Republic","AREA":18378,"POP2005":18893881,"REGION":142,"SUBREGION":145,"LON":38.506,"LAT":35.013},"arcs":[[-1766,-1828,-1727,-1903,2862,2863]]},{"type":"Polygon","properties":{"FIPS":"SZ","ISO2":"CH","ISO3":"CHE","UN":756,"NAME":"Switzerland","AREA":4000,"POP2005":7424389,"REGION":150,"SUBREGION":155,"LON":7.908,"LAT":46.861},"arcs":[[-1223,-1921,-1221,-1737,-1333,-1558],[-1540]]},{"type":"MultiPolygon","properties":{"FIPS":"TD","ISO2":"TT","ISO3":"TTO","UN":780,"NAME":"Trinidad and Tobago","AREA":513,"POP2005":1323722,"REGION":19,"SUBREGION":29,"LON":-61.253,"LAT":10.468},"arcs":[[[2864]],[[2865]]]},{"type":"MultiPolygon","properties":{"FIPS":"TH","ISO2":"TH","ISO3":"THA","UN":764,"NAME":"Thailand","AREA":51089,"POP2005":63002911,"REGION":142,"SUBREGION":35,"LON":100.844,"LAT":15.7},"arcs":[[[2866]],[[2867]],[[2868]],[[2869]],[[2870]],[[2871]],[[2872]],[[2873]],[[2874]],[[2875]],[[2876]],[[2877]],[[2878]],[[2879]],[[2880]],[[2881]],[[-1900,-828,2882,-2005,2883,-246]]]},{"type":"Polygon","properties":{"FIPS":"TI","ISO2":"TJ","ISO3":"TJK","UN":762,"NAME":"Tajikistan","AREA":13996,"POP2005":6550213,"REGION":142,"SUBREGION":143,"LON":69.42,"LAT":38.665},"arcs":[[-907,2884,-1836,-897]]},{"type":"MultiPolygon","properties":{"FIPS":"TL","ISO2":"TK","ISO3":"TKL","UN":772,"NAME":"Tokelau","AREA":1,"POP2005":1401,"REGION":9,"SUBREGION":61,"LON":-171.853,"LAT":-9.193},"arcs":[[[2885]],[[2886]]]},{"type":"MultiPolygon","properties":{"FIPS":"TN","ISO2":"TO","ISO3":"TON","UN":776,"NAME":"Tonga","AREA":72,"POP2005":99361,"REGION":9,"SUBREGION":61,"LON":-175.185,"LAT":-21.202},"arcs":[[[2887]],[[2888]],[[2889]],[[2890]],[[2891]],[[2892]],[[2893]],[[2894]],[[2895]]]},{"type":"Polygon","properties":{"FIPS":"TO","ISO2":"TG","ISO3":"TGO","UN":768,"NAME":"Togo","AREA":5439,"POP2005":6238572,"REGION":2,"SUBREGION":11,"LON":1.081,"LAT":8.799},"arcs":[[2896,-1353,2897,-250]]},{"type":"MultiPolygon","properties":{"FIPS":"TP","ISO2":"ST","ISO3":"STP","UN":678,"NAME":"Sao Tome and Principe","AREA":96,"POP2005":152622,"REGION":2,"SUBREGION":17,"LON":6.629,"LAT":0.201},"arcs":[[[2898]],[[2899]]]},{"type":"MultiPolygon","properties":{"FIPS":"TS","ISO2":"TN","ISO3":"TUN","UN":788,"NAME":"Tunisia","AREA":15536,"POP2005":10104685,"REGION":2,"SUBREGION":15,"LON":9.596,"LAT":35.383},"arcs":[[[2900]],[[2901]],[[2902]],[[-1922,-3,2903]]]},{"type":"MultiPolygon","properties":{"FIPS":"TU","ISO2":"TR","ISO3":"TUR","UN":792,"NAME":"Turkey","AREA":76963,"POP2005":72969723,"REGION":142,"SUBREGION":145,"LON":35.179,"LAT":39.061},"arcs":[[[2904]],[[2905]],[[2906]],[[-1347,-28,-12,-1725,-1767,-2864,2907]],[[2908,-1625,-363]]]},{"type":"MultiPolygon","properties":{"FIPS":"TV","ISO2":"TV","ISO3":"TUV","UN":798,"NAME":"Tuvalu","AREA":3,"POP2005":10441,"REGION":9,"SUBREGION":61,"LON":179.219,"LAT":-8.514},"arcs":[[[2909]],[[2910]],[[2911]],[[2912]]]},{"type":"MultiPolygon","properties":{"FIPS":"TX","ISO2":"TM","ISO3":"TKM","UN":795,"NAME":"Turkmenistan","AREA":46993,"POP2005":4833266,"REGION":142,"SUBREGION":143,"LON":59.384,"LAT":39.122},"arcs":[[[2913]],[[-905,-1721,2914,-1897,2915]]]},{"type":"MultiPolygon","properties":{"FIPS":"TZ","ISO2":"TZ","ISO3":"TZA","UN":834,"NAME":"United Republic of Tanzania","AREA":88359,"POP2005":38477873,"REGION":2,"SUBREGION":14,"LON":34.823,"LAT":-6.27},"arcs":[[[2916]],[[2917]],[[2918]],[[-1833,2919,-2022,-2027,2920,-846,-851,-2791,2921]]]},{"type":"Polygon","properties":{"FIPS":"UG","ISO2":"UG","ISO3":"UGA","UN":800,"NAME":"Uganda","AREA":19710,"POP2005":28947181,"REGION":2,"SUBREGION":14,"LON":32.386,"LAT":1.28},"arcs":[[-1834,-2922,-2790,-843,-2845]]},{"type":"MultiPolygon","properties":{"FIPS":"UK","ISO2":"GB","ISO3":"GBR","UN":826,"NAME":"United Kingdom","AREA":24193,"POP2005":60244834,"REGION":150,"SUBREGION":154,"LON":-2.9,"LAT":54.16},"arcs":[[[2922]],[[2923]],[[2924]],[[2925]],[[2926]],[[-1191,2927]],[[2928]],[[2929]],[[2930]],[[2931]],[[2932]],[[2933]],[[2934]],[[2935]],[[2936]],[[2937]],[[2938]],[[2939]],[[2940]],[[2941]],[[2942]],[[2943]],[[2944]],[[2945]],[[2946]],[[2947]],[[2948]],[[2949]],[[2950]],[[2951]],[[2952]],[[2953]],[[2954]],[[2955]],[[2956]],[[2957]],[[2958]],[[2959]]]},{"type":"MultiPolygon","properties":{"FIPS":"UP","ISO2":"UA","ISO3":"UKR","UN":804,"NAME":"Ukraine","AREA":57935,"POP2005":46917544,"REGION":150,"SUBREGION":151,"LON":31.388,"LAT":49.016},"arcs":[[[2960]],[[2961]],[[2962]],[[2963,-2490,-2493,-2488,-1681,-1920,-2398,-1909,-2726]]]},{"type":"MultiPolygon","properties":{"FIPS":"US","ISO2":"US","ISO3":"USA","UN":840,"NAME":"United States","AREA":915896,"POP2005":299846449,"REGION":19,"SUBREGION":21,"LON":-98.606,"LAT":39.622},"arcs":[[[-1117,2964]],[[-1115,2965]],[[2966]],[[2967]],[[2968]],[[2969]],[[2970]],[[2971]],[[2972]],[[2973]],[[2974]],[[2975]],[[2976]],[[2977]],[[2978]],[[2979]],[[2980]],[[2981]],[[2982]],[[2983]],[[2984]],[[2985]],[[2986]],[[2987]],[[2988]],[[2989]],[[2990]],[[2991]],[[2992]],[[2993]],[[2994]],[[2995]],[[2996]],[[2997]],[[2998]],[[2999]],[[3000]],[[3001]],[[3002]],[[3003]],[[3004]],[[3005]],[[3006]],[[3007]],[[3008]],[[3009]],[[3010]],[[3011]],[[3012]],[[3013]],[[3014]],[[3015]],[[3016]],[[3017]],[[3018]],[[3019]],[[3020]],[[3021]],[[3022]],[[3023]],[[3024]],[[3025]],[[3026]],[[3027]],[[3028]],[[3029]],[[3030]],[[3031]],[[3032]],[[3033]],[[3034]],[[3035]],[[3036]],[[3037]],[[3038]],[[3039]],[[3040]],[[3041]],[[3042]],[[-726,3043]],[[3044,-1991,3045,-724]],[[3046]],[[3047]],[[3048]],[[3049]],[[3050]],[[3051]],[[3052]],[[3053]],[[3054]],[[3055]],[[3056]],[[3057]],[[3058]],[[3059]],[[3060]],[[3061]],[[3062]],[[3063]],[[3064]],[[3065]],[[3066]],[[3067]],[[3068]],[[3069]],[[3070]],[[3071]],[[3072]],[[3073]],[[3074]],[[3075]],[[3076]],[[3077]],[[3078]],[[3079]],[[3080]],[[3081]],[[3082]],[[3083]],[[3084]],[[3085]],[[3086]],[[3087]],[[3088]],[[3089]],[[3090]],[[3091]],[[3092]],[[3093]],[[3094]],[[3095]],[[3096]],[[3097]],[[3098]],[[3099]],[[3100]],[[3101]],[[3102]],[[3103]],[[3104]],[[3105]],[[3106]],[[3107]],[[3108]],[[3109]],[[3110]],[[3111]],[[3112]],[[3113]],[[3114]],[[3115]],[[3116]],[[3117]],[[3118]],[[3119]],[[3120]],[[3121]],[[3122]],[[3123]],[[3124]],[[3125]],[[3126]],[[3127]],[[3128]],[[3129]],[[3130]],[[3131]],[[3132]],[[3133]],[[3134]],[[3135]],[[3136]],[[3137]],[[3138]],[[3139]],[[3140]],[[3141]],[[3142]],[[3143]],[[3144]],[[3145]],[[3146]],[[3147]],[[3148]],[[3149]],[[3150]],[[3151]],[[3152]],[[3153]],[[3154]],[[3155]],[[3156]],[[3157]],[[3158]],[[3159]],[[3160]],[[3161]],[[3162]],[[3163]],[[3164]],[[3165]],[[3166]],[[3167]],[[3168]],[[3169]],[[3170]],[[3171]],[[3172]],[[3173]],[[3174]],[[-728,3175]]]},{"type":"Polygon","properties":{"FIPS":"UV","ISO2":"BF","ISO3":"BFA","UN":854,"NAME":"Burkina Faso","AREA":27360,"POP2005":13933363,"REGION":2,"SUBREGION":11,"LON":-1.74,"LAT":12.278},"arcs":[[-1760,-1936,-2042,-251,-2898,-1352]]},{"type":"Polygon","properties":{"FIPS":"UY","ISO2":"UY","ISO3":"URY","UN":858,"NAME":"Uruguay","AREA":17502,"POP2005":3325727,"REGION":19,"SUBREGION":5,"LON":-56.012,"LAT":-32.8},"arcs":[[-357,3176,-49]]},{"type":"Polygon","properties":{"FIPS":"UZ","ISO2":"UZ","ISO3":"UZB","UN":860,"NAME":"Uzbekistan","AREA":42540,"POP2005":26593123,"REGION":142,"SUBREGION":143,"LON":63.17,"LAT":41.75},"arcs":[[-1896,-1837,-2885,-906,-2916]]},{"type":"MultiPolygon","properties":{"FIPS":"VC","ISO2":"VC","ISO3":"VCT","UN":670,"NAME":"Saint Vincent and the Grenadines","AREA":39,"POP2005":119137,"REGION":19,"SUBREGION":29,"LON":-61.194,"LAT":13.248},"arcs":[[[3177]],[[3178]]]},{"type":"MultiPolygon","properties":{"FIPS":"VE","ISO2":"VE","ISO3":"VEN","UN":862,"NAME":"Venezuela","AREA":88205,"POP2005":26725573,"REGION":19,"SUBREGION":5,"LON":-66.166,"LAT":7.125},"arcs":[[[3179]],[[3180]],[[3181]],[[3182]],[[3183]],[[3184]],[[3185]],[[3186]],[[3187]],[[3188]],[[3189]],[[3190]],[[3191]],[[3192]],[[3193]],[[3194]],[[3195]],[[3196]],[[3197]],[[-1641,-361,-1079,3198]]]},{"type":"MultiPolygon","properties":{"FIPS":"VI","ISO2":"VG","ISO3":"VGB","UN":92,"NAME":"British Virgin Islands","AREA":15,"POP2005":22016,"REGION":19,"SUBREGION":29,"LON":-64.39,"LAT":18.483},"arcs":[[[3199]],[[3200]],[[3201]]]},{"type":"MultiPolygon","properties":{"FIPS":"VM","ISO2":"VN","ISO3":"VNM","UN":704,"NAME":"Viet Nam","AREA":32549,"POP2005":85028643,"REGION":142,"SUBREGION":35,"LON":105.314,"LAT":21.491},"arcs":[[[3202]],[[3203]],[[3204]],[[3205]],[[3206]],[[3207]],[[3208]],[[3209]],[[3210]],[[3211]],[[3212]],[[3213]],[[3214]],[[3215]],[[3216]],[[3217]],[[3218]],[[3219]],[[3220]],[[3221,-830,-1901,-888]]]},{"type":"MultiPolygon","properties":{"FIPS":"VQ","ISO2":"VI","ISO3":"VIR","UN":850,"NAME":"United States Virgin Islands","AREA":35,"POP2005":111408,"REGION":19,"SUBREGION":29,"LON":-64.785,"LAT":17.741},"arcs":[[[3222]],[[3223]],[[3224]]]},{"type":"Polygon","properties":{"FIPS":"WA","ISO2":"NA","ISO3":"NAM","UN":516,"NAME":"Namibia","AREA":82329,"POP2005":2019677,"REGION":2,"SUBREGION":18,"LON":17.218,"LAT":-22.133},"arcs":[[3225,-2817,-2813,3226,-32]]},{"type":"MultiPolygon","properties":{"FIPS":"WF","ISO2":"WF","ISO3":"WLF","UN":876,"NAME":"Wallis and Futuna Islands","AREA":14,"POP2005":15079,"REGION":9,"SUBREGION":61,"LON":-178.131,"LAT":-14.289},"arcs":[[[3227]],[[3228]]]},{"type":"MultiPolygon","properties":{"FIPS":"WS","ISO2":"WS","ISO3":"WSM","UN":882,"NAME":"Samoa","AREA":283,"POP2005":183845,"REGION":9,"SUBREGION":61,"LON":-172.414,"LAT":-13.652},"arcs":[[[3229]],[[3230]]]},{"type":"Polygon","properties":{"FIPS":"WZ","ISO2":"SZ","ISO3":"SWZ","UN":748,"NAME":"Swaziland","AREA":1720,"POP2005":1124529,"REGION":2,"SUBREGION":18,"LON":31.497,"LAT":-26.562},"arcs":[[-2017,-2811]]},{"type":"MultiPolygon","properties":{"FIPS":"YM","ISO2":"YE","ISO3":"YEM","UN":887,"NAME":"Yemen","AREA":52797,"POP2005":21095679,"REGION":142,"SUBREGION":145,"LON":48.355,"LAT":15.807},"arcs":[[[3231]],[[3232]],[[3233]],[[3234]],[[3235]],[[3236]],[[-2799,-1954,3237]]]},{"type":"Polygon","properties":{"FIPS":"ZA","ISO2":"ZM","ISO3":"ZMB","UN":894,"NAME":"Zambia","AREA":74339,"POP2005":11478317,"REGION":2,"SUBREGION":14,"LON":26.32,"LAT":-14.614},"arcs":[[-31,-847,-2921,-2026,-2020,3238,-3226]]},{"type":"Polygon","properties":{"FIPS":"ZI","ISO2":"ZW","ISO3":"ZWE","UN":716,"NAME":"Zimbabwe","AREA":38685,"POP2005":13119679,"REGION":2,"SUBREGION":14,"LON":29.872,"LAT":-19},"arcs":[[-2815,-2818,-3239,-2019]]},{"type":"MultiPolygon","properties":{"FIPS":"ID","ISO2":"ID","ISO3":"IDN","UN":360,"NAME":"Indonesia","AREA":181157,"POP2005":226063044,"REGION":142,"SUBREGION":35,"LON":114.252,"LAT":-0.976},"arcs":[[[3239]],[[3240]],[[3241]],[[3242]],[[3243,3244,3245,3246]],[[3247]],[[3248]],[[3249]],[[3250]],[[3251]],[[3252]],[[3253]],[[3254]],[[3255]],[[3256]],[[3257]],[[3258]],[[3259]],[[3260]],[[3261]],[[3262]],[[3263]],[[3264]],[[3265]],[[3266]],[[3267]],[[3268]],[[3269]],[[3270]],[[3271]],[[3272]],[[3273]],[[3274]],[[3275]],[[3276]],[[3277]],[[3278]],[[3279]],[[3280]],[[3281]],[[3282]],[[3283]],[[3284]],[[3285]],[[3286]],[[3287]],[[3288]],[[3289]],[[3290]],[[3291]],[[3292]],[[3293]],[[3294]],[[3295]],[[3296]],[[3297]],[[3298]],[[3299]],[[3300]],[[3301]],[[3302]],[[3303]],[[3304]],[[3305]],[[3306]],[[3307]],[[3308]],[[3309]],[[3310]],[[3311]],[[3312]],[[3313]],[[3314]],[[3315]],[[3316]],[[3317]],[[3318]],[[3319]],[[3320]],[[3321]],[[3322]],[[3323]],[[3324]],[[3325]],[[3326]],[[3327]],[[3328]],[[3329]],[[3330]],[[3331]],[[3332]],[[3333]],[[3334]],[[3335]],[[3336]],[[3337]],[[3338]],[[3339]],[[3340]],[[3341]],[[3342]],[[3343]],[[3344]],[[3345]],[[3346]],[[3347]],[[3348]],[[3349]],[[3350]],[[3351]],[[3352]],[[3353]],[[3354]],[[3355]],[[3356]],[[3357]],[[3358]],[[3359]],[[3360]],[[3361]],[[3362]],[[3363]],[[3364]],[[3365]],[[3366]],[[3367]],[[3368]],[[3369]],[[3370]],[[3371]],[[3372]],[[3373]],[[3374]],[[3375]],[[3376]],[[3377]],[[3378]],[[3379]],[[3380]],[[3381]],[[3382]],[[3383]],[[3384]],[[3385]],[[3386]],[[3387]],[[3388]],[[3389]],[[-2462,3390]],[[3391]],[[3392]],[[3393]],[[3394]],[[3395]],[[3396]],[[3397]],[[3398]],[[3399]],[[3400]],[[3401]],[[3402]],[[3403]],[[3404]],[[3405]],[[3406]],[[3407]],[[3408]],[[3409]],[[3410]],[[3411]],[[3412]],[[3413]],[[3414]],[[3415]],[[3416]],[[3417]],[[3418]],[[3419]],[[3420]],[[3421]],[[3422]],[[3423]],[[3424]],[[3425]],[[3426]],[[3427]],[[3428]],[[3429]],[[3430]],[[3431]],[[3432]],[[3433]],[[3434]],[[3435]],[[3436]],[[3437]],[[3438]],[[3439]],[[3440]],[[3441]],[[3442]],[[3443]],[[3444]],[[3445]],[[3446]],[[3447]],[[3448]],[[3449]],[[3450]],[[3451]],[[3452]],[[3453]],[[3454]],[[3455]],[[3456]],[[3457]],[[3458]],[[3459]],[[3460]],[[3461]],[[3462]],[[3463]],[[3464]],[[3465]],[[3466]],[[3467]],[[3468]],[[3469]],[[3470]],[[3471]],[[3472]],[[3473]],[[3474]],[[-1996,3475]],[[3476]],[[3477,-2007]],[[3478]],[[3479]],[[3480]],[[3481]],[[3482]],[[3483]]]},{"type":"MultiPolygon","properties":{"FIPS":"GP","ISO2":"GP","ISO3":"GLP","UN":312,"NAME":"Guadeloupe","AREA":169,"POP2005":438403,"REGION":19,"SUBREGION":29,"LON":-61.441,"LAT":16.286},"arcs":[[[3484]],[[3485]],[[3486]]]},{"type":"MultiPolygon","properties":{"FIPS":"NT","ISO2":"AN","ISO3":"ANT","UN":530,"NAME":"Netherlands Antilles","AREA":80,"POP2005":186392,"REGION":19,"SUBREGION":29,"LON":-68.87,"LAT":12.123},"arcs":[[[3487]],[[3488]],[[3489]]]},{"type":"MultiPolygon","properties":{"FIPS":"AE","ISO2":"AE","ISO3":"ARE","UN":784,"NAME":"Untied Arab Emirates","AREA":8360,"POP2005":4104291,"REGION":142,"SUBREGION":145,"LON":54.163,"LAT":23.549},"arcs":[[[3490]],[[3491]],[[3492]],[[3493]],[[3494]],[[3495]],[[3496]],[[3497]],[[3498]],[[3499,-1956,-2798,3500,-1957]]]},{"type":"MultiPolygon","properties":{"FIPS":"TT","ISO2":"TL","ISO3":"TLS","UN":626,"NAME":"Timor-Leste","AREA":1487,"POP2005":1067285,"REGION":142,"SUBREGION":35,"LON":125.878,"LAT":-8.822},"arcs":[[[-3245,3501]],[[-3247,3502]]]},{"type":"MultiPolygon","properties":{"FIPS":"PC","ISO2":"PN","ISO3":"PCN","UN":612,"NAME":"Pitcairn Islands","AREA":0,"POP2005":5,"REGION":9,"SUBREGION":61,"LON":-128.316,"LAT":-24.366},"arcs":[[[3503]]]},{"type":"MultiPolygon","properties":{"FIPS":"PS","ISO2":"PW","ISO3":"PLW","UN":585,"NAME":"Palau","AREA":0,"POP2005":20127,"REGION":9,"SUBREGION":57,"LON":134.57,"LAT":7.501},"arcs":[[[3504]],[[3505]],[[3506]],[[3507]],[[3508]],[[3509]]]},{"type":"MultiPolygon","properties":{"FIPS":"RM","ISO2":"MH","ISO3":"MHL","UN":584,"NAME":"Marshall Islands","AREA":0,"POP2005":5672,"REGION":9,"SUBREGION":57,"LON":168.963,"LAT":7.595},"arcs":[[[3510]],[[3511]],[[3512]],[[3513]]]},{"type":"MultiPolygon","properties":{"FIPS":"SB","ISO2":"PM","ISO3":"SPM","UN":666,"NAME":"Saint Pierre and Miquelon","AREA":0,"POP2005":6346,"REGION":19,"SUBREGION":21,"LON":-56.325,"LAT":47.042},"arcs":[[[3514]],[[3515]]]},{"type":"MultiPolygon","properties":{"FIPS":"SH","ISO2":"SH","ISO3":"SHN","UN":654,"NAME":"Saint Helena","AREA":0,"POP2005":6399,"REGION":2,"SUBREGION":11,"LON":-5.71,"LAT":-15.953},"arcs":[[[3516]],[[3517]],[[3518]],[[3519]]]},{"type":"Polygon","properties":{"FIPS":"SM","ISO2":"SM","ISO3":"SMR","UN":674,"NAME":"San Marino","AREA":0,"POP2005":30214,"REGION":150,"SUBREGION":39,"LON":12.46,"LAT":43.942},"arcs":[[-1738]]},{"type":"MultiPolygon","properties":{"FIPS":"TK","ISO2":"TC","ISO3":"TCA","UN":796,"NAME":"Turks and Caicos Islands","AREA":0,"POP2005":24459,"REGION":19,"SUBREGION":29,"LON":-71.95,"LAT":21.902},"arcs":[[[3520]],[[3521]],[[3522]],[[3523]],[[3524]],[[3525]]]},{"type":"Polygon","properties":{"FIPS":"WI","ISO2":"EH","ISO3":"ESH","UN":732,"NAME":"Western Sahara","AREA":0,"POP2005":440428,"REGION":2,"SUBREGION":15,"LON":-13.706,"LAT":24.554},"arcs":[[3526,-1941,-8,-1948]]},{"type":"Polygon","properties":{"FIPS":"RB","ISO2":"RS","ISO3":"SRB","UN":688,"NAME":"Serbia","AREA":0,"POP2005":9863026,"REGION":150,"SUBREGION":39,"LON":20.806,"LAT":44.032},"arcs":[[-2075,-205,-1676,-1683,-2492,-366,-1932,-23]]},{"type":"Polygon","properties":{"FIPS":"VT","ISO2":"VA","ISO3":"VAT","UN":336,"NAME":"Holy See (Vatican City)","AREA":0,"POP2005":783,"REGION":150,"SUBREGION":39,"LON":12.451,"LAT":41.904},"arcs":[[-1739]]},{"type":"MultiPolygon","properties":{"FIPS":"SV","ISO2":"SJ","ISO3":"SJM","UN":744,"NAME":"Svalbard","AREA":0,"POP2005":0,"REGION":150,"SUBREGION":154,"LON":18.374,"LAT":78.83},"arcs":[[[3527]],[[3528]],[[3529]],[[3530]],[[3531]],[[3532]],[[3533]],[[3534]],[[3535]],[[3536]],[[3537]],[[3538]],[[3539]],[[3540]],[[3541]],[[3542]],[[3543]],[[3544]],[[3545]],[[3546]],[[3547]],[[3548]],[[3549]],[[3550]],[[3551]],[[3552]]]},{"type":"Polygon","properties":{"FIPS":"RN","ISO2":"MF","ISO3":"MAF","UN":663,"NAME":"Saint Martin","AREA":0,"POP2005":0,"REGION":19,"SUBREGION":29,"LON":-63.041,"LAT":18.094},"arcs":[[3553,3554]]},{"type":"Polygon","properties":{"FIPS":"TB","ISO2":"BL","ISO3":"BLM","UN":652,"NAME":"Saint Barthelemy","AREA":0,"POP2005":0,"REGION":19,"SUBREGION":29,"LON":-63.043,"LAT":18.04},"arcs":[[-3554,3555]]},{"type":"Polygon","properties":{"FIPS":"GK","ISO2":"GG","ISO3":"GGY","UN":831,"NAME":"Guernsey","AREA":0,"POP2005":0,"REGION":150,"SUBREGION":154,"LON":-2.576,"LAT":49.459},"arcs":[[3556]]},{"type":"Polygon","properties":{"FIPS":"JE","ISO2":"JE","ISO3":"JEY","UN":832,"NAME":"Jersey","AREA":0,"POP2005":0,"REGION":150,"SUBREGION":154,"LON":-2.129,"LAT":49.219},"arcs":[[3557]]},{"type":"MultiPolygon","properties":{"FIPS":"SX","ISO2":"GS","ISO3":"SGS","UN":239,"NAME":"South Georgia South Sandwich Islands","AREA":0,"POP2005":0,"REGION":0,"SUBREGION":0,"LON":-36.891,"LAT":-54.209},"arcs":[[[3558]],[[3559]],[[3560]],[[3561]],[[3562]],[[3563]],[[3564]],[[3565]],[[3566]]]},{"type":"MultiPolygon","properties":{"FIPS":"TW","ISO2":"TW","ISO3":"TWN","UN":158,"NAME":"Taiwan","AREA":0,"POP2005":0,"REGION":0,"SUBREGION":0,"LON":120.946,"LAT":23.754},"arcs":[[[3567]],[[3568]],[[3569]],[[3570]],[[3571]]]}]}},"arcs":[[[3286,6164],[-1,-2],[-3,0],[-1,1],[-1,5],[1,0],[1,4],[5,-4],[0,-4],[-1,0]],[[3285,6197],[0,-4],[-2,3],[-2,0],[0,7],[1,1],[3,-4],[0,-3]],[[5239,7311],[0,-7],[-4,-5],[-1,-5],[-5,-5],[-2,-1],[0,-3],[1,-1],[4,-1],[0,-6],[-1,-4],[0,-5],[-1,-6],[0,-8],[-1,0],[0,-12],[2,-3],[0,-14],[-1,-1],[0,-7],[3,-7],[-2,-4],[0,-2],[-2,-14],[1,-6],[-2,-2],[1,-4],[-4,-6],[-8,-7],[0,-5],[-1,-5],[-3,-1],[-2,-2],[-2,-5],[-1,-1],[0,-16],[1,-8],[4,-9],[1,-5],[0,-10],[1,-3],[7,-5],[2,0],[2,-5],[3,-9],[2,-7],[0,-12],[6,-8],[4,-4],[5,-6],[5,-8],[1,-5],[0,-5],[3,-17],[0,-7],[3,-19],[1,-8],[1,-11],[2,-12],[0,-7],[2,-12],[0,-4]],[[5264,6924],[-6,-6],[0,-2],[4,-7],[4,-10],[1,-6],[1,-2],[0,-3],[2,-5],[1,-5],[2,-13],[0,-8],[1,-4],[0,-13],[-1,-4],[0,-7],[-1,-10],[0,-5],[-1,-4],[1,0],[1,-7],[2,-8],[1,-9],[-2,-11],[0,-2],[-2,-4],[-2,-12],[0,-5],[2,-8],[0,-3],[1,-3],[0,-5],[2,-2],[0,-6],[-1,-4],[1,-2],[-1,-3],[0,-6],[-3,-3],[-8,-6],[-2,-9],[-1,-2],[1,-1],[2,-6],[8,-23],[6,-16],[1,-2],[0,-3],[1,-11],[0,-14],[5,-7],[0,-7],[2,-2],[3,-5],[2,0],[6,5],[3,-3],[4,-3],[1,0],[13,-8],[3,-1],[4,-18],[6,-20],[1,-7]],[[5332,6538],[-6,-7],[-1,-2],[-17,-20],[-8,-9],[-2,-3],[-4,-4],[-7,-10],[-17,-20],[-7,-9],[-14,-16],[-7,-10],[-4,-5],[-15,-18],[-4,-5],[-7,-10],[-5,-6],[-1,0],[-14,-26],[-8,-14],[-5,-8],[-4,-9],[-9,-16],[-1,0],[-4,-8],[-4,-2],[-10,-3],[-12,-5],[-15,-6],[-3,-1]],[[5117,6286],[-4,-2],[-4,-1],[-1,-1],[-5,-2],[-11,-4],[-6,9],[0,3],[1,1],[3,10],[1,1],[-1,2],[-1,7],[0,16],[-6,6],[-3,2],[-5,2],[-4,0],[-5,3],[0,4],[-3,7],[-2,2],[-4,-4],[-5,3],[-3,3],[-3,5],[0,8],[-1,2],[-2,1],[-2,3],[-9,5],[0,10],[1,2],[0,5],[-1,4],[-11,15],[-17,22],[-5,5],[-2,4],[-9,13],[-28,39],[-9,13],[-10,13],[-9,14],[-11,14],[-11,15],[-7,9],[-18,24],[-11,15],[-8,10]],[[4866,6623],[-23,30],[-6,7],[-12,15],[-11,13],[-3,4],[-12,14],[-1,2],[-12,15],[-1,0],[-11,14],[-2,3],[-13,14],[0,1]],[[4759,6755],[0,21]],[[4759,6776],[0,60],[1,2],[3,3],[1,0],[2,3],[1,5],[5,6],[1,2],[5,3],[8,13],[1,3],[6,0],[3,5],[0,2],[6,7],[8,-2],[3,-2],[4,0],[2,3],[0,7],[3,4],[4,-1],[2,1],[0,2],[3,0],[2,-1],[3,2],[5,1],[2,1],[3,0],[0,1],[4,3],[2,3],[2,5],[3,5],[1,4],[1,0],[0,3],[2,6],[0,2],[2,3],[8,5],[6,3],[1,2],[3,3],[3,2],[4,9],[4,1],[5,0],[3,4],[0,4],[-3,4],[-4,0],[1,11],[-1,6],[0,14],[3,2],[3,-1],[3,-2],[3,2],[0,1],[7,3],[5,4],[1,3],[0,8],[2,3],[11,3],[1,1],[5,0],[2,-1],[5,-1],[3,0],[6,-1],[10,0],[3,-1],[1,1],[-1,4],[-2,-1],[1,3],[0,7],[2,5],[2,0],[2,3],[0,2],[-10,13],[-4,12],[1,2],[0,6],[-2,2],[0,2],[-2,5],[-1,1],[0,8],[1,1],[0,3],[1,3],[0,5],[-1,3],[-3,3],[1,10],[2,12],[-1,1],[-1,10],[-2,6],[1,4],[2,2],[-2,1],[-3,6],[2,4],[1,4],[-3,3],[-6,9],[-3,3],[-1,2],[0,3]],[[4938,7204],[3,0],[0,-1],[5,0],[4,3],[1,0],[1,3],[5,6],[4,1],[4,6],[0,6],[1,0],[0,3],[5,7],[1,0],[6,5],[2,-3],[2,0],[3,3],[1,3],[0,3],[3,2],[2,-2],[0,-3],[6,-2],[3,3],[1,2],[2,8],[0,2],[2,3],[4,4],[5,6],[6,4],[0,-1],[5,4],[0,3],[7,4],[7,1],[5,0],[1,1],[3,0],[3,1],[5,0],[3,1],[2,2],[4,1],[2,-3],[4,0],[6,5],[3,7],[1,1],[3,0],[2,-4],[2,0],[1,2],[7,0],[4,2],[4,5],[4,1],[0,-1],[3,0],[3,-1],[3,1],[4,0],[5,-1],[5,0],[2,1],[3,-3],[5,-4],[0,-4],[4,-4],[5,1],[4,3],[1,4],[3,3],[4,-1],[5,2],[6,4],[0,4],[3,6],[4,0],[3,-7],[9,-5],[7,2],[2,4],[0,3],[-2,1],[0,2],[8,-3],[3,-3],[5,-1],[0,-5],[3,-2],[3,0],[7,6],[5,-2],[4,0],[2,2]],[[6282,7419],[-3,2],[-13,4],[-2,1],[-3,3],[0,3],[-3,9],[-2,-1],[-3,1],[0,6],[-3,6],[-2,1],[-1,3],[0,5],[-1,3],[-2,0]],[[6244,7465],[0,4],[-1,1]],[[6243,7470],[6,1],[1,3],[2,-1],[5,-9],[1,-4],[5,-2],[3,3],[4,2],[2,-2],[0,-7],[1,-5],[4,-4],[0,-3],[-1,-3],[4,-15],[1,-1],[1,-4]],[[6256,7543],[0,0]],[[6251,7546],[-2,1],[0,2],[2,-1],[0,-2]],[[6349,7592],[1,0],[3,-5],[1,-4],[3,-4],[0,-3],[3,-6],[2,-2],[2,-8],[0,-3],[3,-13],[5,-8],[3,-3],[0,-8],[5,-5],[5,-1],[3,2],[7,-6],[3,-5],[0,-4],[1,-4],[-1,0],[-2,4],[-4,1],[-5,0],[-11,-8],[-4,-9],[1,-2],[0,-3],[-1,-4],[0,-9],[-3,-7],[-1,-8],[4,-5],[-1,-3],[-3,0],[-1,-4],[-1,-16],[-1,-2],[-3,-1],[0,3],[2,0],[1,3],[-3,7],[0,1],[-3,-1],[0,-14],[-2,-4],[0,-25]],[[6357,7396],[-1,1],[-2,-1],[-3,-3],[-1,0],[-5,13],[-3,-1],[-2,4],[-1,0],[1,3],[-3,2],[-3,4],[-1,0],[0,5],[2,3],[4,0],[3,4],[-1,6],[-5,5],[0,4],[2,4],[2,0],[3,2],[-2,5],[-4,6],[-5,9],[-4,-3],[-1,-2],[-7,-7],[-2,-1],[-4,-4],[0,-2],[-3,-3],[-3,-2],[-2,-4],[0,-3],[-2,-2],[-3,1],[-3,-4],[0,-5],[-3,-3],[-3,-6]],[[6292,7421],[-1,4],[0,4],[1,1],[-1,4],[0,3],[-2,1],[0,4],[3,-2],[2,2],[-1,3],[-5,6],[0,4],[2,0],[2,2],[0,6],[-6,2],[-2,-2],[-2,1],[-5,9],[-5,5],[0,4],[-1,1],[-5,2],[0,3],[9,0],[1,5],[1,0],[0,7],[-1,2],[-2,0],[-7,7],[-3,4],[-3,9],[-1,2],[1,4],[3,3],[2,1],[1,3],[-1,2],[-6,7],[-1,0],[-7,4],[-1,3],[4,0],[-1,5],[-3,1],[-1,4]],[[6250,7561],[3,5],[4,5],[2,0],[10,-7],[0,-4],[3,-3],[5,-3],[2,0],[2,2],[3,0],[4,-6],[4,-3],[4,6],[1,3],[0,3],[-1,4],[-3,4],[-2,0],[-5,5],[-2,7],[-1,1],[0,8],[3,0],[3,4],[1,4]],[[6290,7596],[3,-1],[2,-4],[3,3],[1,-1],[0,-3],[7,-10],[1,-3],[2,0],[3,-8],[0,-6],[3,-3],[6,-3],[2,1],[2,-2],[4,0],[2,2],[-1,3],[5,10],[4,2],[5,5],[3,10],[2,4]],[[6264,7522],[2,2],[-3,1],[0,-3],[1,0]],[[5537,7593],[0,6],[1,7],[0,3],[-3,4],[7,15],[2,5],[1,5],[2,2],[2,-4],[-1,0],[0,-5],[2,-2],[3,2],[0,1],[4,2]],[[5557,7634],[1,-2],[2,-1],[2,-10],[3,-1],[3,-2],[2,-4],[2,-10],[0,-6],[-1,0],[0,-3]],[[5571,7595],[-1,-6],[-1,-3],[1,-5],[-2,-5],[0,-3],[3,-5],[-1,-4],[-1,0],[0,-6],[2,-4],[1,-4],[2,-1],[1,-10],[3,0],[1,2],[3,-2],[0,-3]],[[5582,7536],[0,-4],[1,-4],[1,-1],[0,-8],[-3,-5],[-4,-2],[0,-3],[-1,-4],[-1,-1],[0,-4],[-1,-8],[-2,-1],[-5,-1],[-3,-4],[0,-4],[2,-4],[0,-4],[-3,2],[1,-5],[-3,-5],[-1,0],[-4,3],[-1,0]],[[5555,7469],[0,10],[-2,4],[-2,6],[-3,2],[0,2],[-4,2],[-4,4],[-2,4],[-3,8],[2,1],[2,-6],[2,1],[0,5],[-1,7],[-2,1],[-2,4],[1,2],[1,8],[1,3],[3,2],[0,2],[-3,5],[1,2],[1,11],[0,3],[-1,0],[0,6],[2,9],[2,4],[-1,3],[1,7],[-4,3],[-3,-1]],[[6292,7421],[-5,2],[-5,-4]],[[6243,7470],[-3,5],[-2,2],[-1,5],[-4,5],[-4,2],[-6,-2],[-4,1],[-6,5],[-1,2],[2,1],[-2,7],[-2,10],[0,3],[2,1],[2,5],[0,3],[1,4],[-1,2],[-1,9],[-1,0],[-1,4],[-4,1],[-1,5],[1,1]],[[6207,7551],[2,1],[3,-1],[4,0],[2,3],[3,0],[5,1],[3,2],[2,0],[3,-2],[3,0],[5,2],[4,0],[4,4]],[[5326,4218],[-1,-1],[-1,5],[0,9],[1,0],[0,-9],[1,-4]],[[5666,4557],[0,-14],[2,-17],[-1,-3],[-2,-11],[1,-2],[1,-7],[-1,-1],[0,-3],[-1,-18],[2,-3],[0,-3],[1,-5],[-1,-1],[-1,-5],[-1,-1],[-2,-14],[0,-5],[2,-3],[2,-7],[-29,0],[-27,0],[-1,-18],[0,-8],[1,-14],[-1,-1],[1,-11],[0,-131],[2,-3],[1,-5],[0,-10],[2,-2],[8,-14],[0,-1],[8,-16],[8,-15],[4,-9],[8,-8]],[[5652,4168],[-6,-2],[-8,-3],[-3,-2],[-9,-3],[-7,-3],[-15,-5],[-11,-4],[-3,3],[0,1],[-3,0],[-5,-1],[-3,-3],[-6,2],[-3,-1],[-2,5],[-1,0],[-3,3],[-2,-2],[-3,0],[-1,-1],[-3,1],[-2,2],[-3,0],[0,-1],[-11,0],[-2,1],[-3,3],[-3,0],[-2,-2],[-4,1],[-4,4],[-1,0],[-3,6],[-3,10],[-2,5],[-26,0],[-7,-1],[-18,1],[-17,0],[-28,0],[-22,0],[0,-2],[-3,-1],[-1,1],[-4,1],[-2,4],[-4,5],[-5,8],[-1,6],[-3,2],[-3,-1],[-3,2],[-5,-2],[-3,-3],[-2,-4],[-5,-7],[-4,-1],[-1,2],[-4,-1],[-6,5],[-3,-1],[-3,-4],[-1,-3],[-2,1]],[[5326,4189],[0,25],[2,2],[0,24],[-1,2],[0,24],[-1,0],[0,3],[-1,2],[1,3],[2,1],[0,-2],[2,3],[3,9],[1,5],[0,17],[2,6],[1,7],[2,6],[1,5],[0,3],[1,4],[0,8],[1,4],[0,21],[1,3],[1,6],[3,6],[1,16],[-1,0],[0,8],[1,1],[6,12],[0,1],[3,5],[3,9],[-1,0],[0,7],[5,9],[2,3],[5,0],[0,1],[3,6],[0,5],[1,3],[2,2],[5,21],[1,9],[0,3],[-1,1],[0,12],[1,10],[0,3],[1,11],[0,11],[-2,3],[-1,4],[0,3],[1,1],[0,3],[-1,1],[-5,12],[-1,1],[0,8],[-1,2],[-5,16],[1,1],[0,3],[-2,7],[-1,7],[0,3],[-2,11],[0,4],[-1,2],[-4,13],[1,4],[0,3],[1,0],[1,3],[0,-2],[-2,-2],[0,-6],[2,7],[5,10],[3,1],[0,2],[1,4],[0,2],[-2,7],[0,3],[1,-1],[0,10],[-2,3],[-2,11],[-1,3],[-2,11],[-1,1],[0,3],[-3,13],[-3,15],[-1,10],[0,8],[-5,10],[0,1],[-2,4],[-1,1],[0,2],[-5,22],[-1,3],[-2,4],[0,3],[1,1],[1,-2],[5,3],[2,0],[7,2],[1,2],[1,0],[1,2],[0,3],[3,1],[1,-2],[3,3]],[[5366,4846],[9,0],[0,-1],[7,0],[5,2],[1,-1],[7,-2],[3,0],[7,-1],[3,1],[1,1],[9,0],[17,1],[4,-1],[3,1],[12,0],[4,-1],[2,-2],[1,-4],[0,-3],[2,-6],[1,-2],[0,-2],[-1,-9],[0,-3],[1,-3],[3,-19],[1,-4],[1,0],[1,-2],[1,-7],[0,-3],[-1,0],[0,-8],[1,-5],[1,0],[1,-3],[3,-6],[1,-4],[3,-9],[0,-5],[2,-5],[1,0],[1,-2],[2,-7],[0,-3],[3,-2],[1,0],[3,2],[4,1],[2,-2],[1,-2],[3,0],[-1,2],[1,3],[2,2],[4,0],[2,-1],[3,1],[0,3],[7,0],[0,-4],[6,0],[11,1],[-1,3],[0,8],[1,1],[0,12],[2,0],[0,1],[2,4],[0,4],[-1,2],[0,14],[1,8],[22,0],[0,5],[8,0],[0,-4],[-2,-7],[0,-10],[35,0],[0,-2],[1,-3],[1,-6],[-1,-7],[0,-3],[-1,-1],[-1,-6],[0,-15],[1,0],[0,-2],[2,-8],[0,-5],[1,-3],[0,-3],[1,-1],[0,-8],[-1,-2],[0,-9],[-1,-4],[-1,-7],[0,-22],[-1,-2],[0,-4],[1,-12],[1,-2],[4,-11],[1,-2],[3,-2],[0,-3],[1,-7],[0,-4],[1,-2],[2,-10],[0,-3],[-1,-5],[1,-4],[0,-9],[-1,-3],[-2,-1],[-1,-3],[1,-6],[1,-3],[0,-4],[1,-6],[1,-3],[5,5],[0,4],[2,3],[4,-4],[5,3],[1,-3],[5,0],[3,1],[2,3],[4,4],[3,0],[4,-3],[5,-1],[3,5],[1,4]],[[5339,4851],[-1,3],[-1,1],[0,7],[1,2],[1,0],[0,4],[-1,9],[-1,1],[-2,9],[0,1],[-2,5],[1,1]],[[5334,4894],[3,7],[2,8],[1,-2],[2,0],[1,5],[1,2],[0,4],[2,1],[4,1],[1,1],[0,2],[1,2],[1,4],[1,1],[3,0],[1,-1],[0,-4],[3,-6],[2,-3]],[[5363,4916],[0,-2],[-1,0],[-5,-2],[-1,-2],[-3,-8],[0,-2],[-1,0],[-2,-5],[-1,-1],[-1,-6],[0,-9],[-1,-26],[-7,0],[-1,-2]],[[259,4360],[-2,-5],[-2,3],[1,2],[2,2],[4,0],[-3,-2]],[[293,4362],[-2,-1],[0,3],[2,0],[0,-2]],[[3093,2022],[0,5]],[[3093,2027],[2,-5],[-2,0]],[[3227,2031],[-1,-3],[-3,-2],[0,2],[-2,0],[-3,-2],[-4,-1],[1,2],[-2,1],[-4,-4],[-6,-3],[0,2],[-2,4],[2,2],[2,-2],[3,1],[5,3],[4,-1],[7,2],[3,-1]],[[3093,2028],[0,95],[1,20],[0,8]],[[3094,2151],[5,-11],[3,-3],[2,-5],[1,-7],[-2,2],[0,4],[-3,-1],[-5,-8],[0,-3],[4,-5],[7,0],[1,-1],[1,-5],[3,-10],[5,-8],[6,-7],[0,-4],[7,-7],[2,-3],[16,-12],[1,-3],[3,-5],[6,-5],[15,-9],[3,-1],[10,3],[5,-1],[-2,-10],[-3,-5],[-4,0],[-7,-1],[-1,2],[-4,0],[-3,-4],[-4,-2],[-6,1],[-2,-4],[-4,0],[-3,4],[-3,2],[-5,2],[-5,1],[-9,1],[-6,-1],[-8,2],[-4,2],[-5,0],[0,-1],[-6,-1],[-3,4]],[[3281,2923],[-1,0],[-4,4],[-1,5],[6,-3],[0,-6]],[[3278,2933],[-4,2],[0,2],[4,-1],[0,-3]],[[3260,3902],[0,-2],[6,-10],[4,-2],[1,-2],[0,-3],[2,-10],[4,-9],[0,-6],[4,-6],[4,-5],[-1,-2],[2,-4],[3,0],[0,-1],[4,-6],[7,-7],[2,-3],[2,-9],[2,-4],[3,-1],[3,-2],[4,-1],[1,-3],[8,-5],[5,0],[2,1],[1,-2],[9,-11],[6,-6],[0,-1],[3,-6],[0,-1],[12,-12],[3,-5],[6,-3],[2,0],[2,-2],[3,-5],[0,-1],[5,0],[1,-2],[5,-4],[2,-1],[3,-4],[0,-2],[3,-6],[0,-4],[3,-3],[0,-4],[-1,-4],[-4,-11],[-2,-2],[0,-4],[-1,-4],[-2,-2],[0,-2],[2,0],[-4,-6],[-2,-1],[-2,-5],[0,-3],[-1,-3],[-2,-13],[2,-3],[0,-4],[-4,-12],[-1,-1],[-3,-6],[-1,0],[-2,-8],[-2,0],[-1,-4],[2,-2],[0,-5],[3,2],[6,0],[3,1],[4,0],[8,-3],[3,-3],[6,-3],[4,-1],[3,-3],[3,0],[0,1],[3,3],[2,-1],[4,-4],[1,3],[4,0],[1,-3],[4,-5],[1,1],[1,6],[1,3],[-1,1],[5,6],[2,0],[2,-2],[3,-1],[0,-3],[2,-2],[2,0],[4,7],[0,9],[4,10],[4,3],[1,0],[3,3],[2,5],[3,0],[0,3],[1,1],[0,3],[2,1],[4,13],[1,8],[0,3],[1,3],[-1,1],[0,10],[2,2],[0,9],[-1,8],[1,4]],[[3483,3709],[1,1],[3,-3],[5,4],[0,-1],[3,0],[0,2],[2,2],[6,-8],[0,-3],[1,0],[1,-7],[-1,-2],[0,-7],[1,0],[4,-12],[0,-7],[-1,-1],[0,-11],[-1,-8],[0,-7],[1,0],[0,-8],[-1,-5],[-3,-10],[0,2],[-5,-3],[0,-2],[-3,-4],[0,1],[-4,-8],[0,-1],[-5,-2],[-5,-3],[-1,-2],[-3,0],[-1,1],[-2,-7],[0,-3],[-1,-1],[-3,-6],[-1,-1],[-3,0],[-4,-4],[-2,-3],[0,-3],[-2,-3],[-3,-3],[-2,-1],[-1,-3],[-2,-1],[0,-2],[2,-2],[0,-7],[-1,0],[0,3],[-5,0],[0,-1],[-3,-11],[-2,-3],[-3,-6],[-2,-3],[-1,0],[0,-3],[-3,-13],[-5,-4],[-2,-4],[0,-5],[-1,-4],[-3,-7],[-3,-5],[-4,-9],[-1,-3],[-2,-1],[-3,0],[-1,-2],[0,-3],[-1,0],[0,-8],[-6,-10],[-2,0]],[[3399,3445],[0,-7],[-3,-7],[-2,-1],[-2,-3],[0,-7],[1,-1],[1,-4],[0,-11],[-1,-10],[-2,-11],[-2,-9],[-2,-1],[-1,-3],[2,-1],[1,-3],[0,-4],[-1,-9],[-1,-2],[-4,-3],[0,-3],[1,-1],[0,-3],[1,-1],[-1,-4],[0,-3],[-1,-1],[3,-6],[0,-5],[-2,-2],[-1,-5]],[[3383,3314],[-1,-1],[0,-6],[2,-16],[0,-5],[1,-6],[-1,-2],[-3,-1],[0,1],[-4,0],[0,-10],[-1,-5],[-2,-4],[0,-6],[-1,-8],[0,-5],[1,-1],[1,-4],[1,-1],[0,-10],[2,-1],[0,-9],[-1,-4],[-2,-1],[0,-12],[2,-5],[2,-2],[0,-3],[1,0],[4,-5],[4,-2],[5,-4],[1,-2],[8,-9],[1,0],[5,-8],[5,-13],[0,-4],[-1,-3],[-2,-3],[-2,-6],[-2,-4],[0,-13],[2,-6],[1,-5],[3,-5],[6,-6],[1,0],[3,3],[2,0],[1,-6],[0,-10],[1,-16],[-1,-5],[-4,-7],[-5,-17],[-2,-5],[-5,-10],[-2,-3],[-5,-10],[0,-5],[-1,-2],[1,-3],[0,-3],[-4,-7],[-5,-5],[-9,-8],[-4,-3],[-10,-5],[-10,-7],[-1,-1],[-3,0],[-9,-3],[-8,-5],[-3,0],[-8,-2],[-8,-3],[-10,-2],[-1,-1],[-6,-1],[-3,0],[-3,1],[-4,0],[-3,-2],[-2,1],[-6,1],[-7,4],[0,2],[-3,4],[-5,1],[-1,-2],[2,-6],[2,-1],[-1,-5],[-1,-2],[0,-11],[2,-1],[3,0],[3,-3],[1,-2],[-1,-3],[-3,5],[-3,1],[0,-2],[3,-5],[1,0],[2,-4],[-1,-8],[-1,-4],[0,-7],[-1,-1],[-3,0],[-1,-2],[-1,-7],[0,-10],[-1,-2],[-2,-1],[-1,-2],[1,-9],[4,-8],[1,0],[1,-3],[-2,-1],[-1,1],[0,-4],[2,3],[2,0],[-1,-2],[-2,-11],[-3,-3],[-5,-4],[-4,-4],[-1,0],[-5,-3],[-2,-3],[-15,0],[-3,-1],[-3,0],[-4,4],[-2,3],[-4,2],[-10,7],[-1,0],[-6,5],[-1,5],[-3,1],[-2,-1],[-4,-7],[-1,0],[0,-5],[-1,0],[0,-9],[1,-1],[0,-7],[2,-12],[2,-3],[0,-8],[-1,0],[0,-4],[1,-1],[0,-6],[-2,-6],[0,-5],[3,-8],[3,-3],[3,-2],[4,-1],[3,0],[0,-2],[-3,-7],[0,-2],[14,0],[1,3],[1,0],[0,5],[-1,2],[-2,1],[-4,-1],[-1,2],[4,1],[5,3],[4,4],[3,0],[2,-6],[0,-3],[2,-1],[0,-4],[1,-17],[-3,-11],[-5,-1],[-6,-3],[-2,1],[-3,5],[0,3],[1,3],[0,3],[-3,5],[-2,2],[-4,0],[-5,-3],[-1,-2],[-6,-4],[-1,-4],[0,-3],[1,0],[7,-5],[3,-4],[5,-2],[3,1],[1,-2],[-3,-3],[-4,-3],[-5,-2],[-6,-6],[-3,-4],[0,-2],[-2,-6],[-1,-1],[-4,-8],[-1,-3],[0,-10],[2,-4],[0,-4],[1,0],[0,-8],[-2,-1],[-1,-4],[1,-1],[1,-6],[-2,-5],[-2,-7],[-7,-7],[-2,-8],[0,-3],[3,-1],[2,-2],[-2,-7],[-2,-2],[-4,3],[-8,2],[-2,0],[-4,-4],[-5,-3],[-1,-5],[-4,-2],[-4,0],[-4,-4],[0,-1],[-5,-14],[-4,-4],[-1,-3],[-1,-8],[-6,-12],[-1,-4],[0,-7],[1,-1],[0,-5],[1,-2],[1,-5],[3,-9],[2,-3],[5,-5],[6,-9],[3,-7],[3,-2],[0,-1],[6,0],[4,-1],[1,-1],[4,-1],[3,0],[2,2],[4,-3],[2,-5],[1,0],[1,-8],[0,-3],[-1,-4],[0,-5],[-3,-12],[0,-1],[-4,1],[-2,-3],[-4,-2],[3,0],[4,3],[1,0],[4,-8],[-1,-3],[-1,2],[-3,-1],[1,-5],[-1,-3],[-3,0],[-9,-14],[-1,-3],[-1,0],[-6,-3],[-3,-7],[-2,0],[-2,-2],[-4,-2],[-4,-10],[-5,-4],[-2,-5],[-3,-4],[-1,-4],[0,-4],[-1,-4],[-3,-4],[-1,-5],[3,1],[1,7],[2,0],[-2,-9],[-1,-6],[0,-6],[-1,-5],[0,-6],[-1,-5],[-3,-5],[-5,-5],[-3,-2],[-5,0],[-2,3],[-2,5],[-3,3],[0,-2],[-2,-1],[-5,0],[-4,-1],[3,-1],[1,2],[2,-1],[4,0],[2,1],[1,-5],[4,-4],[0,-3],[-8,-4],[-6,-5],[-5,-10],[-1,-4],[-1,-9],[0,-8],[-5,-8],[3,3],[2,-3],[0,-8],[2,-10],[1,-1],[2,-7],[0,-6],[-1,1],[-4,-3],[-4,3],[-5,-1],[-2,-2],[4,1],[4,-1],[2,-2],[6,1],[3,-9],[2,-8],[5,-10],[3,-4],[3,-7],[0,-4],[-1,-1]],[[3099,2167],[0,3],[-8,2],[-3,0],[-5,5],[-6,3],[-7,0],[-8,5],[-7,4],[-34,0],[-19,0],[-1,4],[0,4],[-6,8],[-3,1],[-3,10],[2,7],[0,6],[2,2],[0,2],[-4,4],[1,7],[2,0],[1,12],[-3,6],[1,4],[-2,2],[-3,1],[-3,-3],[-3,0],[0,2],[-2,0],[-4,-3],[-1,-3],[-3,-3],[-2,0],[-1,2],[-2,13],[0,9],[-2,6],[-3,4],[-3,2],[0,4],[2,3],[0,2],[-3,4],[1,5],[3,3],[-2,10],[-2,3],[1,7],[2,7],[8,1],[3,2],[-3,1],[0,2],[5,13],[2,2],[3,0],[7,8],[0,14],[-1,2],[0,4],[5,3],[4,4],[-1,8],[0,7],[-2,4],[-4,3],[0,3],[2,8],[1,2],[0,3],[3,5],[0,6],[-1,0],[0,3],[3,2],[2,0],[2,3],[1,0],[1,5],[4,2],[1,2],[0,3],[-4,6],[1,13],[3,1],[5,6],[0,10],[-2,5],[0,12],[-2,1],[-3,3],[0,1],[3,0],[2,2],[0,2],[4,5],[-1,6],[-4,2],[-1,7],[1,3],[0,6],[4,3],[1,-1],[3,3],[5,10],[-1,5],[-7,14],[-6,3],[-3,0],[-4,1],[-1,8],[2,1],[2,-2],[3,-1],[1,2],[2,1],[2,-2],[3,2],[3,0],[2,-3],[3,0],[1,3],[0,6],[1,3],[2,0],[0,4],[-1,5],[-1,1],[-5,1],[-13,0],[0,3],[1,1],[0,10],[1,4],[4,10],[-1,0],[-1,3],[-3,5],[0,3],[3,1],[0,7],[-4,5],[-3,3],[2,7],[4,1],[0,8],[-2,2],[-3,1],[-3,0],[-2,2],[-1,3],[0,6],[1,1],[0,11],[-1,2],[0,8],[1,1],[1,8],[1,1],[-3,3],[0,2],[3,8],[2,1],[0,-3],[1,0],[5,4],[0,5],[-1,1],[0,9],[-4,11],[0,3],[1,0],[1,3],[-1,7],[0,10],[1,1],[0,20],[-1,1],[-2,8],[0,2],[3,3],[0,7],[1,7],[3,-1],[1,5],[0,3],[-2,-1],[-2,3],[0,8],[2,1],[2,3],[1,5],[-2,13],[0,9],[2,-1],[0,-2],[3,0],[1,1],[0,3],[3,19],[-1,6],[0,12],[10,10],[4,0],[1,3],[1,6],[0,4],[-3,3],[-1,3],[-1,7],[0,8],[1,5],[-1,0],[-2,10],[-1,3],[0,3],[-1,4],[-1,1],[0,4],[2,2],[0,11],[-2,5],[0,3],[2,2],[0,7],[-2,15],[2,6],[2,10],[0,5],[3,0],[6,4],[1,0],[0,3],[-1,2],[1,3],[3,6],[4,1],[1,5],[0,11],[2,4],[-2,8],[0,17],[-5,6],[1,4],[3,0],[2,2],[0,10],[2,8],[2,11],[2,8],[3,6],[0,8],[2,1],[2,-1],[2,2],[-1,8],[-1,12],[0,7],[1,13],[1,6],[1,0],[0,3],[1,1],[-1,6],[-3,2],[-2,-1],[0,-3],[-1,1],[-3,8],[1,1],[0,4],[-1,1],[3,6],[1,4],[-2,1],[-3,5],[0,17],[-2,8],[-3,3],[0,11],[2,3],[1,6],[-2,3],[-3,0],[-1,3],[-4,15],[0,6],[1,7],[0,9],[2,5],[1,-1],[2,1],[2,4],[-1,4],[0,8],[1,0],[1,8],[0,3],[1,4],[3,7],[2,3],[3,1],[3,10],[0,4],[-3,7],[1,2],[0,15],[-2,2],[0,8],[-1,9],[-1,1],[0,5],[4,8],[2,0],[1,2],[0,5],[1,8],[1,4],[0,3],[-1,1],[0,5],[1,3],[2,2],[0,10],[3,4],[0,1],[4,7],[1,4],[1,0],[0,3],[1,4],[3,2],[1,3],[1,10],[1,6],[1,2],[4,13],[1,6],[-1,2],[2,7],[4,0],[1,-2],[6,4],[3,3],[1,7],[-4,11],[-4,9],[0,15],[1,2],[2,1],[2,5],[-2,13],[-1,11],[-2,6],[-1,6],[0,6],[1,6],[1,3],[0,4],[1,2],[4,2],[0,1],[-4,12],[-2,2],[0,5],[5,16],[2,1],[2,5],[2,2],[8,6],[7,6],[8,8],[3,16],[1,12],[1,7],[1,2],[2,13],[2,7],[-3,6],[-3,6]],[[3133,3869],[2,6],[3,4],[0,7],[3,3],[4,3],[0,3],[1,8],[1,2],[2,0],[8,4],[2,8],[0,5],[1,7],[4,-3],[4,-6],[5,-10],[4,0],[12,1],[5,0],[1,-1],[11,-6],[1,-3],[0,-8],[3,-10],[-1,-4],[3,-5],[0,-9],[2,2],[0,12],[1,5],[2,5],[5,22],[2,5],[31,0],[0,-6],[1,-3],[4,-5]],[[9412,2032],[-1,-2],[0,5],[1,2],[1,8],[2,1],[-1,-4],[0,-4],[-2,-6]],[[9093,2684],[-2,-6],[-4,0],[-1,4],[4,9],[1,1],[1,-7],[1,-1]],[[9094,2692],[-2,0],[-1,6],[1,5],[2,-8],[0,-3]],[[9115,2726],[-2,0],[-2,-4],[-1,0],[1,7],[1,2],[2,-1],[1,-4]],[[9119,2744],[-2,1],[0,2],[2,-1],[0,-2]],[[9030,2832],[5,1],[1,-2],[6,-3],[6,-5],[3,-4],[8,-6],[8,-1],[2,1],[2,-2],[0,3],[2,3],[2,1],[2,-1],[0,-5],[4,0],[-2,3],[-2,1],[0,3],[2,2],[4,2],[3,-1],[6,1],[2,-2],[2,2],[3,8],[2,1],[1,-2],[4,-2],[2,2],[1,3],[0,4],[1,0],[6,-6],[2,-3],[1,-4],[0,-6],[-1,-2],[0,-7],[1,-2],[0,-4],[-1,-5],[0,-8],[1,-1],[0,-3],[-1,-6],[0,-18],[2,-3],[0,-9],[-1,-2],[-1,4],[1,1],[0,3],[-3,12],[-1,-1],[-2,-9],[-1,-1],[-2,-23],[-1,-2],[0,-9],[-2,-2],[-1,-8],[2,0],[-1,3],[3,-2],[0,-6],[-1,-1],[0,-5],[1,-3],[0,-6],[-3,4],[-3,-4],[-2,4],[-2,6],[0,3],[1,4],[2,0],[0,-3],[-1,-1],[2,-2],[3,0],[1,1],[-3,6],[-7,6],[-2,-2],[2,-7],[-1,-2],[-3,-2],[0,9],[-3,3],[1,-6],[-3,-11],[1,-6],[-2,-3],[-3,3],[-2,3],[0,4],[-1,1],[-1,-4],[1,-3],[2,-2],[1,-3],[-2,-6],[-1,-1],[-1,-6],[0,-4],[-3,-3],[-1,3],[-1,-1],[-5,3],[0,1],[-9,1],[0,3],[-4,-2],[-2,1],[-3,7],[1,2],[4,-1],[3,-2],[0,4],[-2,3],[-1,-4],[-7,2],[-1,1],[-3,9],[-4,9],[-2,1],[-2,6],[-2,11],[-1,2],[-2,1],[-2,18],[1,4],[1,-3],[3,-4],[2,-1],[0,-6],[1,-3],[2,10],[-2,2],[-6,10],[0,7],[-2,5],[-4,5],[-2,8],[-3,10],[-2,8],[-2,5],[-1,5],[0,9],[-1,2],[-1,6],[1,2],[2,1],[0,7],[1,2],[8,-3],[2,-3]],[[9025,2838],[-2,0],[0,3],[2,3],[2,-3],[0,-2],[-2,-1]],[[9116,2845],[-3,4],[1,2],[2,0],[1,-2],[-1,-4]],[[9020,2845],[-1,2],[0,3],[2,6],[0,-6],[-1,-5]],[[9025,2853],[-2,-1],[-1,3],[2,3],[2,-1],[-1,-4]],[[9120,2861],[3,-6],[-2,-2],[-2,1],[-6,0],[-1,-1],[-2,2],[0,3],[2,2],[4,-1],[3,3],[1,-1]],[[9115,2865],[-2,-1],[-2,2],[0,6],[-3,9],[-3,3],[-1,4],[3,6],[2,1],[1,-1],[2,-5],[3,-5],[3,-4],[2,-12],[-1,-2],[-4,-1]],[[8998,2873],[-2,-1],[0,10],[-1,1],[0,13],[3,3],[-1,5],[2,0],[2,-2],[1,-3],[0,-9],[1,-6],[0,-4],[-1,-3],[-4,-4]],[[9092,2908],[-1,2],[2,1],[-1,-3]],[[9091,2909],[-1,1],[1,2],[0,-3]],[[9073,2950],[-3,-1],[-2,1],[0,2],[3,0],[2,-2]],[[9036,2968],[1,-6],[-1,2],[-2,1],[-1,-1],[-3,0],[1,3],[3,2],[2,-1]],[[9041,2973],[-3,0],[-1,-3],[-1,0],[-2,3],[1,5],[5,-2],[1,-3]],[[8821,3130],[0,-6],[3,0],[3,-3],[2,0],[1,4],[4,-1],[2,-4],[0,-3],[-2,-3],[-1,0],[-3,3],[-4,1],[-4,-4],[-1,0],[1,-5],[-5,-4],[-2,3],[0,2],[-5,1],[0,-3],[-1,-1],[-3,1],[-8,-2],[-4,6],[-2,2],[0,3],[1,7],[1,0],[8,4],[4,0],[5,3],[3,3],[5,-1],[2,-3]],[[8791,3157],[-2,1],[1,2],[1,-3]],[[8783,3163],[-2,1],[-2,5],[1,1],[3,-6],[0,-1]],[[8815,3194],[-1,2],[1,1],[0,-3]],[[8395,3216],[-1,0],[0,3],[1,0],[0,-3]],[[8422,3219],[-1,-1],[-1,2],[2,-1]],[[8735,3238],[-1,0],[1,4],[1,1],[1,-3],[-2,-2]],[[8710,3322],[-1,3],[3,1],[-2,-4]],[[8213,3327],[-1,-1],[0,5],[1,-4]],[[9262,3586],[-2,0],[0,12],[1,6],[1,1],[2,-1],[0,-3],[-1,-1],[0,-4],[-1,-3],[0,-7]],[[9261,3614],[0,-7],[-1,4],[0,3],[-1,1],[0,10],[3,2],[0,-4],[-1,-1],[0,-8]],[[8143,3678],[0,1],[-4,10],[-3,8],[0,9],[0,6],[2,2],[0,-5],[1,-4],[1,-8],[1,-5],[2,-7],[0,-7]],[[8140,3730],[-1,0],[1,6],[1,2],[-1,-8]],[[8142,3748],[-1,-4],[0,7],[1,6],[1,-1],[-1,-8]],[[9251,3696],[-2,4],[-1,9],[-1,1],[2,8],[2,4],[0,8],[-1,0],[2,5],[3,5],[1,3],[0,6],[-3,5],[2,5],[2,2],[0,-13],[2,-3],[0,-3],[-3,-14],[0,-2],[-2,-6],[-1,-9],[-2,-6],[0,-3],[1,0],[0,-5],[-1,-1]],[[9204,3808],[-2,7],[1,0],[1,-4],[0,-3]],[[9201,3814],[-2,-1],[-1,2],[0,3],[-3,6],[0,3],[-1,1],[0,4],[1,1],[2,-2],[3,-5],[1,-6],[1,0],[0,-5],[-1,-1]],[[9193,3846],[-1,2],[1,1],[0,-3]],[[9158,3892],[0,4],[1,-1],[-1,-3]],[[9179,3896],[-1,3],[1,0],[0,5],[1,0],[1,-5],[-1,-3],[-1,0]],[[9163,3903],[-1,0],[